stop_id,stop_code,stop_name,stop_desc,stop_lat,stop_lon,zone_id,stop_url,location_type,parent_station,wheelchair_boarding,stop_direction
STOP_132166,,M. Tacubaya,Inicia frente al metro Tacubaya sobre calle Carlos Lazo,19.402325646816475,-99.18885111808775,,,0,,0,
STOP_132167,,Parque Lira,Sobre Av. Observatorio,19.403985242354114,-99.18751001358032,,,0,,0,
STOP_132168,,Gob. Agustín Vicente Eguia,Sobre Parque Lira,19.40752700547074,-99.18937683105469,,,0,,0,
STOP_132169,,Gral. Francisco Leyva,Sobre Av. Texcoco,19.391193775770223,-99.03739213943481,,,0,,0,
STOP_132170,,Ángel Trias (Base),Sobre Gral. Francisco Arce.,19.390161509151707,-99.0360939502716,,,0,,0,
STOP_132180,,Domingo Arellano,Sobre  Av. Texcoco,19.392570121078766,-99.04042840003967,,,0,,0,
STOP_132208,,Metro Chapultepec,Inicio de Recorrido,19.421065948769677,-99.17555809020995,,,0,,0,
STOP_132209,,Tolstoi,,19.424971592774213,-99.17829394340515,,,0,,0,
STOP_132211,,Gandhi,,19.42558879735572,-99.18987035751343,,,0,,0,
STOP_132212,,Rubén Darío,,19.425760804772143,-99.19106125831604,,,0,,0,
STOP_132213,,Auditorio Nacional,,19.426155409333468,-99.19355034828186,,,0,,0,
STOP_132215,,Gandhi,,19.425335844941934,-99.19043898582458,,,0,,0,
STOP_132216,,Zoológico II,,19.42567986012828,-99.19248819351196,,,0,,0,
STOP_132217,,Auditorio Nacional,,19.42619588154198,-99.1960608959198,,,0,,0,
STOP_132218,,Julio Verne,,19.426438714581302,-99.19763803482056,,,0,,0,
STOP_132219,,Anatole France,,19.426570248992714,-99.19860363006592,,,0,,0,
STOP_132220,,Fuente de Petróleos,,19.427936176969773,-99.20219779014587,,,0,,0,
STOP_132221,,Montes Urales,,19.427086267578314,-99.20495510101318,,,0,,0,
STOP_132222,,Prado Sur,,19.42652977687748,-99.20589923858643,,,0,,0,
STOP_132223,,Prado Norte,,19.427096385573407,-99.20574903488159,,,0,,0,
STOP_132224,,Av. Volcán,,19.429109854057238,-99.20740127563477,,,0,,0,
STOP_132225,,Coordillera de los Ándes,,19.429625864575705,-99.20984745025635,,,0,,0,
STOP_132226,,Monte Urales,,19.42748086892018,-99.2049765586853,,,0,,0,
STOP_132227,,Monte Altai,,19.42503230152554,-99.2089569568634,,,0,,0,
STOP_132228,,Monte Altai,,19.424627576088195,-99.20907497406004,,,0,,0,
STOP_132229,,Paseo de la Reforma,,19.425062655892706,-99.20912861824036,,,0,,0,
STOP_132230,,Alpes,,19.426711901316676,-99.21034097671509,,,0,,0,
STOP_132231,,Prado Norte,,19.428007002551677,-99.21096324920654,,,0,,0,
STOP_132232,,Explanada,,19.424111549693443,-99.21116709709167,,,0,,0,
STOP_132233,,Monte Himalaya,,19.424111549693443,-99.2126476764679,,,0,,0,
STOP_132234,,Monte Himalaya,,19.42369670375637,-99.21269059181213,,,0,,0,
STOP_132235,,Monte Everest,,19.42321102911835,-99.21469688415527,,,0,,0,
STOP_132236,,Monte Blanco,,19.422796180882152,-99.21632766723631,,,0,,0,
STOP_132237,,Monte Blanco,,19.423231265590594,-99.2163062095642,,,0,,0,
STOP_132238,,Sierra Nevada,,19.42417225876612,-99.21672463417053,,,0,,0,
STOP_132239,,Alpes,,19.424860293337858,-99.21722888946533,,,0,,0,
STOP_132240,,Monte Tabor,,19.42831054041009,-99.21693921089172,,,0,,0,
STOP_132241,,Monte Sinaí,,19.42887714289493,-99.21596288681029,,,0,,0,
STOP_132242,,Monte Stanovoi,,19.429514568328035,-99.21387076377867,,,0,,0,
STOP_132243,,Monte Stanovoi,,19.42990916377117,-99.21369910240173,,,0,,0,
STOP_132244,,Torre Palmas,,19.429676453754002,-99.21510457992554,,,0,,0,
STOP_132245,,Monte Tabor,,19.4287860819146,-99.21693921089172,,,0,,0,
STOP_132246,,Sierra Mayca,,19.427713582082742,-99.21815156936646,,,0,,0,
STOP_132247,,Montañas Calizas,,19.425669742044956,-99.21913862228394,,,0,,0,
STOP_132248,,Paseo de las Palmas,,19.427126739554925,-99.21919226646423,,,0,,0,
STOP_132249,,Sierra Gorda,,19.427086267578314,-99.21939611434937,,,0,,0,
STOP_132250,,Sierra Gorda,,19.427551694700607,-99.21929955482483,,,0,,0,
STOP_132251,,Puente de Tecamachalco,,19.428897378661425,-99.2229688167572,,,0,,0,
STOP_132252,,Sierra Ventana,,19.42619588154198,-99.22132730484009,,,0,,0,
STOP_132253,,Cofre de Perote,,19.426145291279777,-99.22183156013489,,,0,,0,
STOP_132254,,Monte Chimborazo,,19.424243085988913,-99.22229290008545,,,0,,0,
STOP_132255,,Monte Chimborazo,,19.424627576088195,-99.22258257865906,,,0,,0,
STOP_132257,,Sierra Vertientes,,19.422846772187185,-99.22319412231444,,,0,,0,
STOP_132258,,Aconcagua,,19.42045884541686,-99.22481417655945,,,0,,0,
STOP_132259,,Aconcagua,,19.421045712027798,-99.2245888710022,,,0,,0,
STOP_132260,,Monte Antuco,,19.418961314116608,-99.22663807868958,,,0,,0,
STOP_132261,,Monte Antuco,,19.419376172142435,-99.22676682472229,,,0,,0,
STOP_132262,,Monte Ararat,,19.417301871424176,-99.22798991203307,,,0,,0,
STOP_132263,,Monte Ararat,,19.417726852264146,-99.22814011573792,,,0,,0,
STOP_132264,,Monte Líbano,,19.41602692223749,-99.22911643981932,,,0,,0,
STOP_132265,,Monte Líbano,,19.415693005321838,-99.22883749008179,,,0,,0,
STOP_132266,,Paseo de las Palmas.,,19.415854904518117,-99.2291808128357,,,0,,0,
STOP_132267,,Montañas Calizas,,19.422644406872596,-99.22287225723265,,,0,,0,
STOP_132268,,Sierra Vertientes,,19.416866770841636,-99.23075795173645,,,0,,0,
STOP_132269,,Sierra Tarahumara,,19.41445851864816,-99.22959923744202,,,0,,0,
STOP_132270,,Sierra Tarahumara,,19.413628776435683,-99.22940611839294,,,0,,0,
STOP_132271,,Montañas Rocallosas.,,19.412050230779027,-99.22994256019591,,,0,,0,
STOP_132272,,Montañas Rocallosas,,19.411807376240773,-99.22955632209778,,,0,,0,
STOP_132273,,Monte Auvernia,,19.40915619060484,-99.2296850681305,,,0,,0,
STOP_132274,,Monte Auvernia,,19.409125833267098,-99.22934174537659,,,0,,0,
STOP_132275,,Sierra Grande,,19.407567482317745,-99.22861218452454,,,0,,0,
STOP_132277,,Sierra Ixtlán,,19.406525200297253,-99.22679901123047,,,0,,0,
STOP_132278,,Bosque de Auvernia,,19.407021044033204,-99.22364473342896,,,0,,0,
STOP_132281,,Montañas Rocallosas,,19.4115139265231,-99.22094106674193,,,0,,0,
STOP_132282,,Sierra Tarahumara,,19.41313295284835,-99.21984672546387,,,0,,0,
STOP_132285,,Sierra Bacatete,,19.415156713082478,-99.21899914741516,,,0,,0,
STOP_132286,,Monte Líbano,,19.41786851229719,-99.21806573867798,,,0,,0,
STOP_132288,,Montes Pirineos,,19.42046896382466,-99.21763658523558,,,0,,0,
STOP_132290,,Sierra Vertientes,,19.40580673016103,-99.22880530357361,,,0,,0,
STOP_132291,,Glorieta de Bosques,,19.406596035209237,-99.23364400863647,,,0,,0,
STOP_132293,,Bosque de Chihuahua,,19.410269289075153,-99.23543572425842,,,0,,0,
STOP_132294,,Bosque de Ciruelos,,19.409186547936915,-99.23795700073242,,,0,,0,
STOP_132297,,Bosque de Duraznos,,19.407678793595064,-99.24014568328857,,,0,,0,
STOP_132298,,Bosque de Sándalos,,19.40707164024778,-99.24075722694397,,,0,,0,
STOP_132300,,Bosque de Mangos,,19.40490610818369,-99.24286007881165,,,0,,0,
STOP_132303,,Bosque de Capulines,,19.402082777756675,-99.24558520317078,,,0,,0,
STOP_132304,,Bosque de Maples,,19.401303570408693,-99.246346950531,,,0,,0,
STOP_132307,,Bosques de Abedules,,19.39821706307652,-99.24916863441467,,,0,,0,
STOP_132309,,Bosques de Abedules,,19.396810405886903,-99.25237655639648,,,0,,0,
STOP_132310,,Bosques Colorines,,19.396355010666056,-99.25409317016602,,,0,,0,
STOP_132312,,Bosques de Castilloas,,19.395140617180168,-99.25651788711548,,,0,,0,
STOP_132315,,Bosques de Cacao,,19.392114713992914,-99.25939321517943,,,0,,0,
STOP_132317,,Fábrica de Armas,,19.390019824987313,-99.25962924957275,,,0,,0,
STOP_132319,,Fábrica de Cartuchos,,19.388349966615987,-99.26254749298096,,,0,,0,
STOP_132323,,Royal Reforma,,19.385536469531164,-99.26340579986572,,,0,,0,
STOP_132326,,Secretaría de Marina,,19.383775478993424,-99.2660665512085,,,0,,0,
STOP_132328,,Pabellón Bosques,,19.381437582822993,-99.2669141292572,,,0,,0,
STOP_132330,,Bosque de Toronjos,,19.3803445289444,-99.26518678665161,,,0,,0,
STOP_132332,,Bosque de Teponaztles,,19.38282413135486,-99.26202178001404,,,0,,0,
STOP_132333,,Bosque de Zarzas,,19.385131645805927,-99.25932884216309,,,0,,0,
STOP_132335,,Bosque de Tejocotes,,19.386882501180715,-99.25711870193481,,,0,,0,
STOP_132337,,Bosque de Yucas,,19.38907863419344,-99.2543077468872,,,0,,0,
STOP_132339,,Bosque de Tabachines,,19.390242471476004,-99.25253748893738,,,0,,0,
STOP_132346,,Bosque de Alisos,,19.387783222912127,-99.25153970718384,,,0,,0,
STOP_132348,,Paseo de los Tamarindos,,19.38649792184485,-99.25352454185486,,,0,,0,
STOP_132350,,Prolongación Reforma (Túnel),,19.37604308828835,-99.2613136768341,,,0,,0,
STOP_132352,,Priv. Palo Alto,,19.38002065971978,-99.25946831703186,,,0,,0,
STOP_132355,,Bosque de Radiatas,,19.38386656517791,-99.25734400749207,,,0,,0,
STOP_132356,,Sierra Breña,,19.403125088243936,-99.2306399345398,,,0,,0,
STOP_132357,,Castillo de Windsor,,19.402578635034896,-99.23157334327698,,,0,,0,
STOP_132358,,Castillo de Chapultepec,,19.399795742994346,-99.23401951789856,,,0,,0,
STOP_132359,,Castillo de Chapultepec,,19.399401074450868,-99.23394441604614,,,0,,0,
STOP_132360,,Rivera de Cupia,,19.396952084140135,-99.23729181289673,,,0,,0,
STOP_132361,,Rivera de Cupia,,19.39658776838259,-99.23725962638855,,,0,,0,
STOP_132362,,Castillo de Miramar,,19.398480177459845,-99.23483490943909,,,0,,0,
STOP_132363,,Paseo de la Reforma,,19.394958457375697,-99.2391049861908,,,0,,0,
STOP_132364,,Constituyentes,,19.393713693254984,-99.23977017402649,,,0,,0,
STOP_132365,,Puente Conafrut,,19.387358163839544,-99.2428708076477,,,0,,0,
STOP_132366,,Puente Conafrut,,19.386993826608396,-99.24250602722168,,,0,,0,
STOP_132367,,Bosque de Duraznos ,,19.405037660019467,-99.24127221107483,,,0,,0,
STOP_132368,,Bosque de Duraznos I,,19.402588754555435,-99.24319267272949,,,0,,0,
STOP_132369,,Bosque de Duraznos II,,19.40400548121959,-99.24014568328857,,,0,,0,
STOP_132370,,Parque Duraznos,,19.40815439546721,-99.23802137374877,,,0,,0,
STOP_132883,,Gob. J. Cortina,,19.407628197569363,-99.18745636940002,,,0,,0,
STOP_132885,,Avenida Jalisco,,19.407699032000934,-99.18449521064758,,,0,,0,
STOP_132890,,Carlos B Zetina,,19.40708175948881,-99.18259620666504,,,0,,0,
STOP_132891,,Gral Fco Alvarado (Metro Patriotismo),,19.40590792333,-99.17904496192932,,,0,,0,
STOP_132893,,Agricultura,,19.405047779387058,-99.1763412952423,,,0,,0,
STOP_132894,,Mineria,,19.40351974775329,-99.17592287063599,,,0,,0,
STOP_132895,,Benjamin Franklin (Eje 4 Sur),,19.40458228782692,-99.17532205581665,,,0,,0,
STOP_132896,,Baja California (Eje 3 Sur),,19.40563470162931,-99.1749894618988,,,0,,0,
STOP_132897,,Nuevo León,,19.405725775580528,-99.17208194732666,,,0,,0,
STOP_132898,,Chilpancingo (Metro Chilpacingo),,19.40580673016103,-99.16934609413147,,,0,,0,
STOP_132899,,Tlacotalpan,,19.405887684701234,-99.16648149490356,,,0,,0,
STOP_132900,,Medellin (Eje 3 Pte),,19.40603947435552,-99.16332721710205,,,0,,0,
STOP_132901,,Linares,,19.406191263868134,-99.16049480438232,,,0,,0,
STOP_132902,,Cuauhtémoc (Eje 1 Pte),,19.40645436535444,-99.15538787841797,,,0,,0,
STOP_132903,,Doctor Jiménez,,19.406636512287943,-99.1515576839447,,,0,,0,
STOP_132904,,Doctor Andrade,,19.406828778274214,-99.14823174476624,,,0,,0,
STOP_132905,,Lázaro Cárdenas Eje Central,,19.407041282520918,-99.14481997489929,,,0,,0,
STOP_132906,,Bolivar,,19.407223428797103,-99.14233088493347,,,0,,0,
STOP_132907,,Isabel la Católica,,19.407405574869287,-99.13971304893494,,,0,,0,
STOP_132908,,5 de Febrero,,19.407557363106942,-99.13778185844421,,,0,,0,
STOP_132909,,Oriente 67,,19.40860975765844,-99.130539894104,,,0,,0,
STOP_132910,,José Antonio Torres,,19.40842761293495,-99.13312554359436,,,0,,0,
STOP_132911,,Calzada de la Viga (Eje 2 Ote),,19.40885261697241,-99.1270637512207,,,0,,0,
STOP_132912,,Torno,,19.408812140445267,-99.12467122077942,,,0,,0,
STOP_132913,,H Congreso de la Unión,,19.409024642100363,-99.1220211982727,,,0,,0,
STOP_132914,,Nicolás Bravo,,19.408994284738068,-99.11995053291321,,,0,,0,
STOP_132915,,Industria,,19.40853892362356,-99.11550879478453,,,0,,0,
STOP_132916,,Francisco del Paso y Troncoso (Eje 3 Ote),,19.40831630217017,-99.11359906196594,,,0,,0,
STOP_132917,,Fernando Iglesias,,19.40826570634281,-99.10946846008301,,,0,,0,
STOP_132918,,Radames Treviño,,19.408275825509545,-99.10441517829895,,,0,,0,
STOP_132919,,Atletas,,19.406656750823505,-99.1027307510376,,,0,,0,
STOP_132920,,Pemex (Frente a Palacio de los Deportes),,19.40329711942984,-99.10089612007141,,,0,,0,
STOP_132921,,Circuito Bicentenario Río Churubusco,,19.402811383848345,-99.09844994544983,,,0,,0,
STOP_132922,,Vainilla,,19.40027136791568,-99.09879326820374,,,0,,0,
STOP_132923,,Plutarco Elías Calles ,,19.397184841002662,-99.09926533699036,,,0,,0,
STOP_132925,,Centeno,,19.399573109574693,-99.09801006317139,,,0,,0,
STOP_132926,,Añil (Eje 3 Sur),,19.402578635034896,-99.09760236740111,,,0,,0,
STOP_132927,,Puerta 10 Foro Sol,,19.405422195544805,-99.09724831581116,,,0,,0,
STOP_132928,,Puerta 4A,,19.408822259578006,-99.09568190574646,,,0,,0,
STOP_132929,,Puerta 5 Ciudad Deportiva,,19.408255587175454,-99.09069299697875,,,0,,0,
STOP_132930,,Estación Metro Puebla,,19.40703116327738,-99.0827214717865,,,0,,0,
STOP_132931,,Canal de Río Churubusco,,19.40679842050201,-99.07867670059204,,,0,,0,
STOP_132932,,Sur 4,,19.40400548121959,-99.07817244529724,,,0,,0,
STOP_132933,,Sur 8,,19.401263092002935,-99.07936334609985,,,0,,0,
STOP_132934,,Oriente 233,,19.40079758961275,-99.07748579978943,,,0,,0,
STOP_132935,,Oriente 237,,19.400362444869675,-99.07482504844666,,,0,,0,
STOP_132936,,Javier Rojo Gómez Eje 5 Ote,,19.39996777770087,-99.0722393989563,,,0,,0,
STOP_132937,,Oriente 245,,19.399502271604554,-99.06962156295776,,,0,,0,
STOP_132938,,Oriente 249,,19.399107602349215,-99.06707882881165,,,0,,0,
STOP_132939,,Oriente 253,,19.398712932136558,-99.06458973884583,,,0,,0,
STOP_132940,,Oriente 257,,19.39827778181812,-99.06217575073242,,,0,,0,
STOP_132941,,Sur 12,,19.39577817489019,-99.06264781951904,,,0,,0,
STOP_132942,,Sur 16,,19.392985046425437,-99.06328082084656,,,0,,0,
STOP_132943,,Sur 20,,19.390697883799888,-99.06375288963318,,,0,,0,
STOP_132944,,Oriente 259,,19.38993886255228,-99.0622615814209,,,0,,0,
STOP_132945,,Canal de San Juan,,19.389594771754215,-99.05998706817627,,,0,,0,
STOP_132946,,Frente a Secundaria Oficial,,19.389169717411306,-99.05861377716064,,,0,,0,
STOP_132949,,Gral. Antonio de León Loyola,,19.384929233565906,-99.05218720436096,,,0,,0,
STOP_132950,,Frente a Panadería León,,19.388218401289137,-99.05715465545653,,,0,,0,
STOP_132951,,Gral Antonio de León (2° Semáforo),,19.38744924801995,-99.05036330223083,,,0,,0,
STOP_132952,,Priv. A de León Loyola,,19.390880048372683,-99.04829263687132,,,0,,0,
STOP_132954,,Frente a Clínica ISSSTE Zaragoza,,19.389038152746917,-99.04630780220032,,,0,,0,
STOP_132955,,Avenida Texcoco,,19.393814893945535,-99.04327154159546,,,0,,0,
STOP_132956,,Avenida Observatorio,,19.40419775031596,-99.18800354003906,,,0,,0,
STOP_132957,,Parque Lira (MB),,19.407871058349166,-99.18940901756287,,,0,,0,
STOP_132958,,Gral. José Morán,,19.409095475923685,-99.1901171207428,,,0,,0,
STOP_132959,,Gral. J. Cano,,19.409307977208528,-99.18601870536804,,,0,,0,
STOP_132960,,Gob. Ignacio Esteva,,19.410947263500514,-99.18784260749815,,,0,,0,
STOP_132962,,Gral. Pedro A. de los Santos,,19.409348453612267,-99.18379783630371,,,0,,0,
STOP_132963,,Chicontepec,,19.410178217668324,-99.18280005455017,,,0,,0,
STOP_132964,,Patriotismo,,19.410775240406487,-99.18125510215759,,,0,,0,
STOP_132965,,Mazatlán,,19.410168098619984,-99.18004274368286,,,0,,0,
STOP_132966,,Zitácuaro,,19.40970262171509,-99.17920589447021,,,0,,0,
STOP_132967,,Tamaulipas,,19.408549042773284,-99.17688846588135,,,0,,0,
STOP_132968,,Saltillo,,19.407375217204752,-99.17452812194823,,,0,,0,
STOP_132969,,Altata,,19.406494842468394,-99.17274713516235,,,0,,0,
STOP_132970,,Campeche,,19.40826570634281,-99.17182445526123,,,0,,0,
STOP_132971,,Chilpancingo,,19.40849844701834,-99.16993618011473,,,0,,0,
STOP_132972,,Insurgentes Sur,,19.409115714153263,-99.16768312454224,,,0,,0,
STOP_132973,,Medellín (Eje 3 Pte),,19.409864526876614,-99.164217710495,,,0,,0,
STOP_132974,,Gob. José Ma. Tornel,,19.41298116981523,-99.18702721595764,,,0,,0,
STOP_132975,,Constituyentes,,19.4144686374295,-99.18644785881042,,,0,,0,
STOP_132976,,Gral. Juan Cano,,19.415682886616715,-99.18391585350035,,,0,,0,
STOP_132977,,Gral. Pedro Antonio de los Santos,,19.416421550435288,-99.1810405254364,,,0,,0,
STOP_132978,,Zamora,,19.416462025068068,-99.17816519737244,,,0,,0,
STOP_132979,,Cuernavaca,,19.41489362567669,-99.17508602142334,,,0,,0,
STOP_132980,,Tamaulipas,,19.41353770691057,-99.17242527008057,,,0,,0,
STOP_132981,,Sonora,,19.415652530497574,-99.17008638381958,,,0,,0,
STOP_132982,,Yucatán,,19.416583448905957,-99.16751146316528,,,0,,0,
STOP_132983,,Insurgentes Sur ,,19.417038787490206,-99.16512966156006,,,0,,0,
STOP_132984,,Tonalá,,19.41752448057416,-99.16257619857788,,,0,,0,
STOP_132985,,Zacatecas,,19.415429918783985,-99.16202902793884,,,0,,0,
STOP_132986,,Monterrey,,19.410228812900645,-99.16234016418457,,,0,,0,
STOP_132987,,Jalapa,,19.41070440731487,-99.15982961654663,,,0,,0,
STOP_132988,,Orizaba,,19.411645473013763,-99.15823101997375,,,0,,0,
STOP_132989,,Coahuila,,19.41253593876729,-99.15576338768005,,,0,,0,
STOP_132990,,San Luis Potosí,,19.414590062756346,-99.15626764297485,,,0,,0,
STOP_132991,,Merida,,19.415470393663668,-99.15663242340088,,,0,,0,
STOP_132992,,Orizaba,,19.414974575693055,-99.1591215133667,,,0,,0,
STOP_132993,,Frontera,,19.415763836240053,-99.15513038635252,,,0,,0,
STOP_132994,,Niños Héroes,,19.415612055663235,-99.1509997844696,,,0,,0,
STOP_132995,,Dr. Vértiz,,19.415440037504858,-99.14838194847106,,,0,,0,
STOP_132996,,Dr. Andrade,,19.415298375355395,-99.1466760635376,,,0,,0,
STOP_132997,,Eje Central (Lázaro Cárdenas),,19.415116238124682,-99.14392948150635,,,0,,0,
STOP_132998,,Bolívar,,19.414903744430948,-99.14125800132751,,,0,,0,
STOP_132999,,Isabel la Católica,,19.41474184428738,-99.13881182670593,,,0,,0,
STOP_133000,,5 de Febrero,,19.41429661806119,-99.13702011108398,,,0,,0,
STOP_133001,,Xocongo,,19.413213903741404,-99.1327929496765,,,0,,0,
STOP_133002,,Juan A. Mateos,,19.410188336716057,-99.13332939147949,,,0,,0,
STOP_133003,,José Antonio Torres,,19.408559161922387,-99.13336157798767,,,0,,0,
STOP_133004,,Topacio,,19.40885261697241,-99.12988543510437,,,0,,0,
STOP_133005,,La Viga (Eje 2 Ote),,19.409004403859463,-99.12659168243408,,,0,,0,
STOP_133006,,Torno,,19.408994284738068,-99.12410259246826,,,0,,0,
STOP_133007,,H Congreso de la Unión ,,19.409257381689706,-99.12148475646973,,,0,,0,
STOP_133008,,Nicolás Bravo,,19.409166309716156,-99.11974668502808,,,0,,0,
STOP_133009,,General Montaño,,19.40873118736076,-99.11581993103027,,,0,,0,
STOP_133010,,Francisco del Paso y Troncoso (Eje 3 Ote),,19.408437732091606,-99.11292314529419,,,0,,0,
STOP_133011,,Fernando Iglesias,,19.408447851247644,-99.10920023918152,,,0,,0,
STOP_133012,,2° Puente Peatonal,,19.406859136040744,-99.10742998123169,,,0,,0,
STOP_133013,,1er Puente Peatonal,,19.406302576087352,-99.11019802093506,,,0,,0,
STOP_133014,,Clínica IMSS,,19.4057358949053,-99.11285877227783,,,0,,0,
STOP_133015,,Viaducto Río de la Piedad,,19.40646448463388,-99.11375999450684,,,0,,0,
STOP_133016,,Radames Treviño,,19.40842761293495,-99.1047477722168,,,0,,0,
STOP_133017,,Estación Metro Velodromo (Frente a la ESEF),,19.408063322875957,-99.10189390182494,,,0,,0,
STOP_133018,,Escuela Superior de Educación Fisica,,19.40621150245911,-99.10252690315247,,,0,,0,
STOP_133019,,Palacio de los Deporte Puerta 6,,19.40431918331237,-99.10151839256287,,,0,,0,
STOP_133020,,Palacio de los Deportes,,19.403054251820397,-99.09909367561339,,,0,,0,
STOP_133021,,Circuito Bicentenario Río Churubusco,,19.402791144834314,-99.09753799438477,,,0,,0,
STOP_133023,,Resina,,19.402042299544778,-99.09238815307617,,,0,,0,
STOP_133024,,Centeno,,19.39850041701016,-99.0888261795044,,,0,,0,
STOP_133025,,Canela,,19.396405610197963,-99.08910512924194,,,0,,0,
STOP_133026,,Trigo,,19.394907857393832,-99.08849358558655,,,0,,0,
STOP_133027,,Canal de Río Churubusco,,19.393683333035547,-99.08622980117798,,,0,,0,
STOP_133028,,Oriente 217,,19.392580241221765,-99.08386945724487,,,0,,0,
STOP_133030,,Sur 20,,19.393430330986664,-99.0816056728363,,,0,,0,
STOP_133031,,Oriente 229,,19.39336961043642,-99.08145546913147,,,0,,0,
STOP_133032,,Oriente 233,,19.39302552689044,-99.07920241355896,,,0,,0,
STOP_133033,,Oriente 233,,19.39290408546524,-99.07951354980467,,,0,,0,
STOP_133034,,Sur 16,,19.395960333777136,-99.08101558685303,,,0,,0,
STOP_133035,,Sur 16,,19.395757935001278,-99.08095121383667,,,0,,0,
STOP_133036,,Sur 12,,19.398621854259236,-99.08044695854187,,,0,,0,
STOP_133037,,Sur 12,,19.39841945879375,-99.08039331436157,,,0,,0,
STOP_133038,,Sur 8,,19.401040460591204,-99.07933115959166,,,0,,0,
STOP_133039,,Oriente 229,,19.401172015553133,-99.07918095588684,,,0,,0,
STOP_133040,,Oriente 233,,19.40086842701893,-99.07721757888793,,,0,,0,
STOP_133041,,Oriente 237,,19.400423162810668,-99.07456755638123,,,0,,0,
STOP_133042,,Javier Rojo Gómez Eje 5 Ote,,19.40002849578915,-99.07190680503845,,,0,,0,
STOP_133043,,Oriente 245,,19.399552870157816,-99.06920313835144,,,0,,0,
STOP_133044,,Oriente 249,,19.399178440491184,-99.06689643859863,,,0,,0,
STOP_133045,,Oriente 253,,19.39877365069314,-99.06431078910828,,,0,,0,
STOP_133046,,Sur 8,,19.39822718286836,-99.06174659729002,,,0,,0,
STOP_133047,,Sur 12,,19.39549481621633,-99.0623152256012,,,0,,0,
STOP_133048,,Sur 16,,19.392742163424042,-99.06292676925659,,,0,,0,
STOP_133049,,Oriente 237,,19.39239807855164,-99.07658457756042,,,0,,0,
STOP_133050,,Oriente 237,,19.392529640500513,-99.07637000083922,,,0,,0,
STOP_133051,,Javier Rojo Gómez (Eje 5 Ote),,19.391962911347832,-99.0740418434143,,,0,,0,
STOP_133052,,Javier Rojo Gómez (Eje 5 Ote),,19.392074233301404,-99.07375216484068,,,0,,0,
STOP_133053,,Oriente 245,,19.39151762277217,-99.07147765159606,,,0,,0,
STOP_133054,,Oriente 245,,19.39165930563292,-99.071284532547,,,0,,0,
STOP_133055,,Oriente 249,,19.391092573449995,-99.06892418861389,,,0,,0,
STOP_133056,,Ret 2 de Sur 16,,19.391001491307982,-99.0678298473358,,,0,,0,
STOP_133057,,Oriente 253,,19.390637162230313,-99.06633853912352,,,0,,0,
STOP_133058,,Oriente 255,,19.390394275725527,-99.06421422958374,,,0,,0,
STOP_133059,,Oriente 257,,19.390242471476004,-99.06395673751831,,,0,,0,
STOP_133060,,Oriente 259,,19.390090667084923,-99.06202554702759,,,0,,0,
STOP_133061,,Canal de San Juan,,19.38964537338778,-99.05891418457031,,,0,,0,
STOP_133062,,Frente a Panaderia León,,19.388299364579776,-99.05691862106323,,,0,,0,
STOP_133065,,Aldama,,19.38705454953687,-99.05506253242493,,,0,,0,
STOP_133066,,Frente Calle Aldama,,19.387034308563234,-99.05535221099854,,,0,,0,
STOP_133068,,Constitución de Apatzingan,,19.385303696012123,-99.05243396759033,,,0,,0,
STOP_133069,,Miguel Hidalgo,,19.387783222912127,-99.05088901519774,,,0,,0,
STOP_133070,,Mina,,19.389615012409525,-99.04983758926392,,,0,,0,
STOP_133071,,General Antonio de León Loyola,,19.390920529361193,-99.0481960773468,,,0,,0,
STOP_133072,,CETRAM Tepalcates,,19.390394275725527,-99.0472948551178,,,0,,0,
STOP_133073,,Bahía del Cuerpo Oriente,,19.390100787382064,-99.0465760231018,,,0,,0,
STOP_133074,,Avenida TELECOM,,19.38750997077857,-99.04717683792114,,,0,,0,
STOP_133075,,Emilio Balli,,19.38680153718548,-99.04395818710327,,,0,,0,
STOP_133076,,Emilio Azcarraga Vidaurreta,,19.384878630466588,-99.04123306274414,,,0,,0,
STOP_133077,,Enrique Contel,,19.38324920226319,-99.03945207595825,,,0,,0,
STOP_133078,,J. Crisostomo Bonilla,,19.38967573436036,-99.035085439682,,,0,,0,
STOP_133079,,Ángel Trias Base,,19.390161509151707,-99.03589010238647,,,0,,0,
STOP_133206,,Viaducto Río de la Piedad,,19.40675794346361,-99.0813159942627,,,0,,0,
STOP_133207,,Oriente 217B,,19.40454181023701,-99.08051133155823,,,0,,0,
STOP_133208,,Sur 2A,,19.40568529827518,-99.0792453289032,,,0,,0,
STOP_133209,,Sur 4,,19.404096556083044,-99.079749584198,,,0,,0,
STOP_133210,,Río Churubusco,,19.401819669199373,-99.08123016357422,,,0,,0,
STOP_133274,,Estación Metro Puebla,,19.40738533642689,-99.08250689506531,,,0,,0,
STOP_133485,,Isabel la Católica,,19.40759783994638,-99.13941264152527,,,0,,0,
STOP_133487,,Bolivar,,19.407405574869287,-99.14204120635986,,,0,,0,
STOP_133488,,Lázaro Cárdenas Eje Central,,19.40723354802868,-99.14451956748962,,,0,,0,
STOP_133489,,Doctor Andrade,,19.40703116327738,-99.14796352386475,,,0,,0,
STOP_133490,,Doctor Jiménez,,19.406859136040744,-99.15135383605957,,,0,,0,
STOP_133491,,Cuauhtémoc (Eje 1 Pte),,19.406646631556047,-99.15506601333618,,,0,,0,
STOP_133492,,Toluca,,19.40655555812046,-99.15680408477782,,,0,,0,
STOP_133493,,Monterrey (Eje 2 Pte),,19.406302576087352,-99.16104197502136,,,0,,0,
STOP_133494,,Medellin (Eje 3 Pte),,19.406181144571708,-99.16311264038086,,,0,,0,
STOP_133495,,Tlacotalpan,,19.406079951572732,-99.1663098335266,,,0,,0,
STOP_133496,,Chilpancingo (Metro Chilpacingo),,19.405998997128222,-99.1682517528534,,,0,,0,
STOP_133497,,Nuevo León,,19.40590792333,-99.1715884208679,,,0,,0,
STOP_133499,,Saltillo,,19.40580673016103,-99.17487144470213,,,0,,0,
STOP_133500,,Metro Patriotismo,,19.40633293395211,-99.17921662330627,,,0,,0,
STOP_133501,,Carlos B. Zetina,,19.407334740309896,-99.1822850704193,,,0,,0,
STOP_133502,,José Vasconcelos,,19.407871058349166,-99.18388366699219,,,0,,0,
STOP_133503,,Joaquin A Pérez,,19.407992488603057,-99.18535351753235,,,0,,0,
STOP_133504,,Gob. J. Cortina,,19.407921654299308,-99.18724179267883,,,0,,0,
STOP_133639,,Avenida Té (Eje 4 Sur),,19.3965169291128,-99.09848213195801,,,0,,0,
STOP_134668,,Norte 180,,19.439126235852484,-99.08796787261963,,,0,,0,
STOP_134669,,Avenida Oceanía,,19.441129438066216,-99.09312844276428,,,0,,0,
STOP_134670,,Marruecos ,,19.441544239475714,-99.0934932231903,,,0,,0,
STOP_134671,,Av. África,,19.44483226192477,-99.0932035446167,,,0,,0,
STOP_134672,,Damasco,,19.44589453186412,-99.09672260284424,,,0,,0,
STOP_134673,,Carlos Marks,,19.446511656921476,-99.09959793090819,,,0,,0,
STOP_134674,,José Stalin,,19.446977028363417,-99.1018509864807,,,0,,0,
STOP_134675,,Avicultura,,19.447513215544014,-99.10411477088928,,,0,,0,
STOP_134676,,Floricultura,,19.44798870080686,-99.10635709762573,,,0,,0,
STOP_134677,,Rotograbados,,19.44847430133936,-99.10855650901794,,,0,,0,
STOP_134678,,Vulcanización,,19.448757567645536,-99.10982251167297,,,0,,0,
STOP_134679,,Bonanza,,19.449465731247443,-99.11320209503174,,,0,,0,
STOP_134680,,Congreso de la Unión ,,19.449971560499343,-99.1155195236206,,,0,,0,
STOP_134681,,Inde ,,19.450487504711667,-99.11780476570128,,,0,,0,
STOP_134682,,Coalcomán,,19.451215893747616,-99.12120580673218,,,0,,0,
STOP_134683,,Boleo,,19.452004978179563,-99.1246497631073,,,0,,0,
STOP_134684,,Frente a Jesús Carranza,,19.453026735651704,-99.12955284118652,,,0,,0,
STOP_134685,,Constantino,,19.453825927604786,-99.13389801979065,,,0,,0,
STOP_134686,,Eje Central (Abundio Martínez),,19.45477685973559,-99.13822174072266,,,0,,0,
STOP_134687,,Lerdo,,19.455252323710432,-99.14023876190186,,,0,,0,
STOP_134688,,Zoltán Kodali (Metro Tlatelolco),,19.45597057515711,-99.14348959922789,,,0,,0,
STOP_134689,,Insurgentes,,19.45714404955054,-99.14841413497925,,,0,,0,
STOP_134690,,Oyamel,,19.457902756923414,-99.15193319320679,,,0,,0,
STOP_134691,,Naranjo,,19.458742388945208,-99.15690064430237,,,0,,0,
STOP_134692,,Norte 172,,19.439692800601694,-99.0896737575531,,,0,,0,
STOP_134693,,Circuito Bicentenario (Av. Río Consulado),,19.459622480494325,-99.16217923164368,,,0,,0,
STOP_134694,,Fresno,,19.45907621733643,-99.15915369987488,,,0,,0,
STOP_134695,,Av. Jardín ,,19.45980456780472,-99.16338086128235,,,0,,0,
STOP_134696,,Plan de San Luis,,19.460391292191712,-99.16720032691956,,,0,,0,
STOP_134697,,Membrillo,,19.460836392034707,-99.16982889175415,,,0,,0,
STOP_134698,,Artemisa,,19.462424579243905,-99.17120218276978,,,0,,0,
STOP_134699,,Yuca,,19.465479519813137,-99.17303681373596,,,0,,0,
STOP_134700,,Av. Cuitláhuac,,19.468200593896366,-99.17584776878357,,,0,,0,
STOP_134701,,Salónica,,19.47046643485585,-99.17817592620848,,,0,,0,
STOP_134702,,Norte 87,,19.471740956474477,-99.17931318283081,,,0,,0,
STOP_134703,,Tula,,19.4736426050153,-99.18095469474791,,,0,,0,
STOP_134704,,22 de Febrero,,19.477638017273907,-99.18435573577881,,,0,,0,
STOP_134705,,Azcapotzalco,,19.478548350587904,-99.1868770122528,,,0,,0,
STOP_134706,,Aquiles Serdán ,,19.479003515326532,-99.18842196464539,,,0,,0,
STOP_134707,,Cuauhtémoc,,19.47928672829618,-99.18929100036621,,,0,,0,
STOP_134708,,San Francisco,,19.48055106587107,-99.1906213760376,,,0,,0,
STOP_134709,,Santo Domingo,,19.48144115360421,-99.19306755065918,,,0,,0,
STOP_134710,,Tezozomoc,,19.482290778241,-99.19732689857483,,,0,,0,
STOP_134711,,Francita ,,19.48321119990114,-99.20064210891724,,,0,,0,
STOP_134712,,Renacimiento,,19.483858526287158,-99.20316338539124,,,0,,0,
STOP_134713,,Manuel Salazar,,19.485284658101342,-99.2084527015686,,,0,,0,
STOP_134714,,Unidad Priv. San Isidro (Frente),,19.486083691003802,-99.21249747276306,,,0,,0,
STOP_134715,,Calzada de las Armas,,19.487509803220608,-99.21699285507201,,,0,,0,
STOP_134716,,Panteón San Isidro,,19.489279783183036,-99.21611309051514,,,0,,0,
STOP_134717,,Manuel Salazar,,19.487347975515753,-99.20828104019165,,,0,,0,
STOP_134718,,Calzada San Isidro,,19.48542625915633,-99.20878529548645,,,0,,0,
STOP_134719,,Renacimiento ,,19.48361577919561,-99.20339941978455,,,0,,0,
STOP_134721,,2da Cerrada de San Isidro,,19.48297856634915,-99.20096397399902,,,0,,0,
STOP_134722,,Tezozomoc,,19.480247625753137,-99.19887185096741,,,0,,0,
STOP_134723,,Santo Domingo,,19.478710187085948,-99.19456958770752,,,0,,0,
STOP_134724,,Ferrocarriles Nacionales,,19.478143758635465,-99.19021368026733,,,0,,0,
STOP_134725,,Manuel Acuña (Metro Camarones),,19.47886190865601,-99.1901707649231,,,0,,0,
STOP_134726,,Santa Apolonia (Metro Camarones),,19.478659613197674,-99.18946266174316,,,0,,0,
STOP_134727,,Av. Azcapotzalco,,19.4783561695365,-99.18713450431824,,,0,,0,
STOP_134728,,22 de Febrero,,19.477638017273907,-99.18469905853271,,,0,,0,
STOP_134729,,Nubia,,19.474188819087477,-99.18200612068176,,,0,,0,
STOP_134730,,Norte 87 B,,19.47290420158332,-99.18092250823975,,,0,,0,
STOP_134731,,San Lucas,,19.47092162229888,-99.17922735214233,,,0,,0,
STOP_134732,,Cuitláhuac,,19.468352325307357,-99.17662024497986,,,0,,0,
STOP_134733,,Norte 77,,19.467715052426758,-99.17595505714417,,,0,,0,
STOP_134734,,Norte 67,,19.465186167091453,-99.17342305183409,,,0,,0,
STOP_134735,,Poniente 54,,19.462687589637003,-99.17186737060547,,,0,,0,
STOP_134736,,Biólogo Maximino Martínez,,19.46105894149802,-99.17094469070433,,,0,,0,
STOP_134737,,Norte 67,,19.46151415535799,-99.1739273071289,,,0,,0,
STOP_134738,,Norte 73,,19.461787283060527,-99.17569756507872,,,0,,0,
STOP_134739,,Cuitláhuac,,19.462141336804994,-99.17748928070067,,,0,,0,
STOP_134740,,Irapuato (RCA Víctor),,19.46324395637035,-99.1817057132721,,,0,,0,
STOP_134741,,Boca Negra (RCA Víctor),,19.463587891214228,-99.18232798576355,,,0,,0,
STOP_134742,,Cuitláhuac,,19.461959252118685,-99.17791843414307,,,0,,0,
STOP_134743,,Norte 71,,19.46143322854296,-99.17530059814453,,,0,,0,
STOP_134744,,Calzada Camarones,,19.46065430588298,-99.17074084281921,,,0,,0,
STOP_134745,,Calzada los Gallos,,19.456759636460205,-99.16836977005005,,,0,,0,
STOP_134746,,Plan de Agua Prieta,,19.45628417690389,-99.16740417480469,,,0,,0,
STOP_134747,,Manuel Carpio,,19.452399518956266,-99.1665780544281,,,0,,0,
STOP_134748,,José Antonio Alzate,,19.448575467934045,-99.16689991950989,,,0,,0,
STOP_134750,,Circuito Bicentenario,,19.448150567812505,-99.16499018669128,,,0,,0,
STOP_134751,,Fresno,,19.447594149304155,-99.1614282131195,,,0,,0,
STOP_134752,,Santa María la Ribera,,19.446885977534127,-99.15740489959717,,,0,,0,
STOP_134753,,Insurgentes,,19.446248620298743,-99.15345668792725,,,0,,0,
STOP_134754,,Aldama,,19.445742779441343,-99.1505491733551,,,0,,0,
STOP_134755,,Guerrero,,19.445257170734884,-99.1475236415863,,,0,,0,
STOP_134756,,Zarco,,19.444872729478423,-99.14523839950562,,,0,,0,
STOP_134757,,Lerdo,,19.444468053487814,-99.14264202117919,,,0,,0,
STOP_134758,,Paseo de la Reforma,,19.44401279179228,-99.14002418518065,,,0,,0,
STOP_134759,,Callejón Rayón,,19.443759868076285,-99.1378891468048,,,0,,0,
STOP_134760,,Comonford,,19.44356764578852,-99.13536787033081,,,0,,0,
STOP_134761,,Aztecas,,19.443011211566997,-99.1287910938263,,,0,,0,
STOP_134762,,Vidal Alcocer,,19.442596413906276,-99.12317991256714,,,0,,0,
STOP_134763,,Congreso de la Unión,,19.439854675881158,-99.1183304786682,,,0,,0,
STOP_134764,,Ing. Eduardo Molina,,19.439439870154402,-99.11412477493286,,,0,,0,
STOP_134765,,Marmoleria,,19.439197056554274,-99.11168932914734,,,0,,0,
STOP_134766,,Av. del Peñón,,19.438964359846697,-99.10895347595215,,,0,,0,
STOP_134767,,Pirotécnia,,19.43966244896884,-99.10657167434692,,,0,,0,
STOP_134768,,Lucio Blanco,,19.440016550999214,-99.10405039787292,,,0,,0,
STOP_134769,,Cairo,,19.44130142902318,-99.10113215446472,,,0,,0,
STOP_134770,,Plaza África,,19.442515477653764,-99.09844994544983,,,0,,0,
STOP_134771,,Plaza África,,19.443274253436744,-99.09836411476135,,,0,,0,
STOP_134772,,Presia,,19.444457936575127,-99.09895420074463,,,0,,0,
STOP_134773,,Guanabana,,19.460512683179164,-99.16906714439392,,,0,,0,
STOP_134774,,Plan de San Luis,,19.46026990111341,-99.16752219200134,,,0,,0,
STOP_134775,,Circuito Bicentenario,,19.45957190064962,-99.16303753852844,,,0,,0,
STOP_134776,,Fresno,,19.458954825273686,-99.15932536125183,,,0,,0,
STOP_134777,,Naranjo,,19.458631112662083,-99.15710449218749,,,0,,0,
STOP_134778,,Geranio,,19.45737672018889,-99.14990544319153,,,0,,0,
STOP_134779,,Insurgentes,,19.457022656041506,-99.14858579635619,,,0,,0,
STOP_134783,,Guerrero,,19.456152666567785,-99.14508819580078,,,0,,0,
STOP_134784,,M. Tlatelolco,,19.455737902501536,-99.14307117462158,,,0,,0,
STOP_134785,,Lerdo,,19.455161277525278,-99.14054989814758,,,0,,0,
STOP_134786,,Eje Central,,19.4547363946521,-99.13879036903381,,,0,,0,
STOP_134787,,Eje Central II,,19.454341859559037,-99.13703083992004,,,0,,0,
STOP_134788,,Frente a Constantino,,19.45377534595232,-99.13442373275755,,,0,,0,
STOP_134789,,Paseo de la Reforma,,19.453229063100657,-99.13167715072632,,,0,,0,
STOP_134790,,Jesús Carranza,,19.45289522267455,-99.1296923160553,,,0,,0,
STOP_134791,,Tenochtitlán,,19.452622079996736,-99.12808299064636,,,0,,0,
STOP_134792,,Avenida del Trabajo,,19.451964512404626,-99.1251540184021,,,0,,0,
STOP_134793,,Carpintería,,19.451387874015,-99.12253618240356,,,0,,0,
STOP_134794,,Etzalán,,19.45089216569091,-99.12029385566711,,,0,,0,
STOP_134795,,Imprenta,,19.45039645585225,-99.11801934242249,,,0,,0,
STOP_134796,,Congreso de la Unión,,19.45000191020431,-99.11609888076782,,,0,,0,
STOP_134797,,Bondojito,,19.449364565207826,-99.11340594291687,,,0,,0,
STOP_134798,,Ing Eduardo Molina,,19.448818267503956,-99.11086320877075,,,0,,0,
STOP_134800,,Marmolería,,19.44826185128521,-99.10830974578857,,,0,,0,
STOP_134801,,Floricultura,,19.447887533846348,-99.10657167434692,,,0,,0,
STOP_134802,,Cantería,,19.447320997701848,-99.10396456718445,,,0,,0,
STOP_134803,,Herón Proal,,19.446784809886132,-99.1016685962677,,,0,,0,
STOP_134804,,Carlos Marx,,19.446420605831094,-99.09995198249817,,,0,,0,
STOP_134805,,Jerusalén,,19.442019742226485,-99.09593939781189,,,0,,0,
STOP_134806,,Metro Romero Rubio,,19.440775338463382,-99.09481287002563,,,0,,0,
STOP_134807,,Siberia,,19.444093727298153,-99.09489870071411,,,0,,0,
STOP_134808,,Avenida Oceanía,,19.440957446927033,-99.09337520599365,,,0,,0,
STOP_134809,,Norte 172,,19.43957139403618,-99.09018874168395,,,0,,0,
STOP_134810,,Avenida del Peñón,,19.439854675881158,-99.08996343612671,,,0,,0,
STOP_134811,,Persia,,19.440947329795524,-99.08899784088135,,,0,,0,
STOP_134812,,Persia,,19.441200257894092,-99.0891695022583,,,0,,0,
STOP_134813,,Norte 172,,19.44392173929993,-99.08752799034119,,,0,,0,
STOP_134814,,Metro Oceanía,,19.444336533573612,-99.08691644668579,,,0,,0,
STOP_134815,,Pekín,,19.44510541771612,-99.09238815307617,,,0,,0,
STOP_134816,,Manchuria,,19.44439723508572,-99.09026384353638,,,0,,0,
STOP_134817,,Manchuria,,19.44393185624604,-99.09032821655273,,,0,,0,
STOP_14877,,El Caminero,Estación de Metrobús. Línea 1,19.279392,-99.169174,,,0,,1,
STOP_14878,,La Joya,Estación de Metrobús. Línea 1,19.280359,-99.170097,,,0,,1,
STOP_14879,,Santa Úrsula,Estación de Metrobús. Línea 1,19.283764,-99.175598,,,0,,1,
STOP_14880,,Fuentes Brotantes,Estación de Metrobús. Línea 1,19.28838,-99.174461,,,0,,1,
STOP_14881,,Ayuntamiento,Estación de Metrobús. Línea 1,19.292501,-99.177399,,,0,,1,
STOP_14882,,Corregidora,Estación de Metrobús. Línea 1,19.294146,-99.181252,,,0,,1,
STOP_14883,,Villa Olímpica,Estación de Metrobús. Línea 1,19.299402,-99.185509,,,0,,1,
STOP_14884,,Perisur,Estación de Metrobús. Línea 1,19.304468,-99.186066,,,0,,1,
STOP_14885,,Centro Cultural Universitario,Estación de Metrobús. Línea 1,19.314615,-99.187408,,,0,,1,
STOP_14886,,Ciudad Universitaria,Estación de Metrobús. Línea 1,19.322798,-99.188431,,,0,,1,
STOP_14887,,Dr. Gálvez,Estación de Metrobús. Línea 1,19.340818,-99.18998,,,0,,1,
STOP_14888,,La Bombilla,Estación de Metrobús. Línea 1,19.346811,-99.187912,,,0,,1,
STOP_14889,,Altavista,Estación de Metrobús. Línea 1,19.351284825071247,-99.18635129928589,,,0,,1,
STOP_14890,,Olivo,Estación de Metrobús. Línea 1,19.354715,-99.185272,,,0,,1,
STOP_14891,,Francia,Estación de Metrobús. Línea 1,19.35836,-99.184044,,,0,,0,
STOP_14892,,José María Velasco,Estación de Metrobús. Línea 1,19.361984,-99.182716,,,0,,0,
STOP_14893,,Teatro de los Insurgentes,Estación de Metrobús. Línea 1,19.365011,-99.181747,,,0,,1,
STOP_14894,,Río Churubusco,Estación de Metrobús. Línea 1,19.36908,-99.180443,,,0,,1,
STOP_14895,,Félix Cuevas,Estación de Metrobús. Línea 1,19.374292,-99.178757,,,0,,0,
STOP_14896,,Parque Hundido,Estación de Metrobús. Línea 1,19.379322,-99.177284,,,0,,1,
STOP_14897,,Ciudad de los Deportes,Estación de Metrobús. Línea 1,19.382601,-99.176041,,,0,,1,
STOP_14898,,Colonia del Valle,Estación de Metrobús. Línea 1,19.385506,-99.175278,,,0,,1,
STOP_14899,,Nápoles,Estación de Metrobús. Línea 1,19.389858,-99.173683,,,0,,1,
STOP_14900,,Poliforum,Estación de Metrobús. Línea 1,19.393623,-99.172462,,,0,,1,
STOP_14901,,La Piedad,Estación de Metrobús. Línea 1,19.397873,-99.171303,,,0,,1,
STOP_14902,,Nuevo León,Estación de Metrobús. Línea 1,19.401871,-99.16996,,,0,,1,
STOP_14903,,Chilpancingo,Estación de Metrobús. Línea 1,19.406485,-99.168503,,,0,,1,
STOP_14904,,Campeche,Estación de Metrobús. Línea 1,19.409693,-99.16732,,,0,,1,
STOP_14905,,Sonora,Estación de Metrobús. Línea 1,19.413143,-99.166245,,,0,,1,
STOP_14906,,Álvaro Obregón,Estación de Metrobús. Línea 1,19.416866,-99.164856,,,0,,1,
STOP_14907,,Durango,Estación de Metrobús. Línea 1,19.419903,-99.16404,,,0,,1,
STOP_14908,,Insurgentes,Estación de Metrobús. Línea 1,19.423362802598675,-99.16241526603699,,,0,,2,
STOP_14909,,Hamburgo,Estación de Metrobús. Línea 1,19.427805,-99.161057,,,0,,1,
STOP_14910,,Reforma,Estación de Metrobús. Línea 1,19.433065,-99.158806,,,0,,1,
STOP_14911,,Revolución,Estación de Metrobús. Línea 1,19.440411,-99.15554,,,0,,1,
STOP_14912,,Plaza de la República,Estación de Metrobús. Línea 1,19.436152,-99.157227,,,0,,1,
STOP_14913,,El Chopo,Estación de Metrobús. Línea 1,19.443102,-99.154594,,,0,,1,
STOP_14914,,Buenavista,Estación de Metrobús. Línea 1,19.446957,-99.15303,,,0,,1,
STOP_14915,,Manuel González,Estación de Metrobús. Línea 1,19.456881,-99.149155,,,0,,1,
STOP_14916,,San Simón,Estación de Metrobús. Línea 1,19.459663,-99.146515,,,0,,2,
STOP_14917,,Circuito,Estación de Metrobús. Línea 1,19.462444,-99.144035,,,0,,2,
STOP_14918,,La Raza,Estación de Metrobús. Línea 1,19.468838,-99.138802,,,0,,2,
STOP_14919,,Potrero,Estación de Metrobús. Línea 1Cuerpo poniente,19.476616,-99.132477,,,0,,2,
STOP_14920,,Euzkaro,Estación de Metrobús. Línea 1Cuerpo poniente,19.482473,-99.127739,,,0,,2,
STOP_14921,,Deportivo 18 de Marzo,Estación de Metrobús. Línea 1Cuerpo oriente,19.486366,-99.124329,,,0,,2,
STOP_14922,,Indios Verdes,Terminal de Metrobús. Línea 1,19.496784,-99.119728,,,0,,1,
STOP_14923,,Insurgentes,Estación de Metrobús. Línea 1,19.424107,-99.163254,,,0,,2,
STOP_14924,,Tacubaya,Terminal Tacubaya. Línea 2,19.40184,-99.186752,,,0,,1,
STOP_14925,,Parque Lira,Estación de Metrobús. Línea 2,19.407742,-99.189377,,,0,,1,
STOP_14926,,Antonio Maceo,Estación de Metrobús. Línea 2,19.404936,-99.18586,,,0,,0,
STOP_14927,,De La Salle,Estación de Metrobús. Línea 2,19.40766,-99.183746,,,0,,1,
STOP_14928,,Patriotismo,Estación de Metrobús. Línea 2,19.405586,-99.177582,,,0,,1,
STOP_14929,,Escandón,Estación de Metrobús. Línea 2,19.4044,-99.173973,,,0,,1,
STOP_14930,,Nuevo León,Estación de Metrobús. Línea 2,19.403549,-99.169624,,,0,,1,
STOP_14931,,Viaducto,Estación de Metrobús. Línea 2,19.401443,-99.168144,,,0,,1,
STOP_14932,,Amores,Estación de Metrobús. Línea 2,19.396929,-99.164116,,,0,,1,
STOP_14933,,Etiopía,Estación de Metrobús. Línea 2,19.395868,-99.155685,,,0,,1,
STOP_14934,,Coyuya,Estación de Metrobús. Línea 2,19.398268,-99.11702,,,0,,1,
STOP_14935,,Álamos,Estación de Metrobús. Línea 2,19.394604,-99.142555,,,0,,1,
STOP_14936,,Xola,Estación de Metrobús. Línea 2,19.394239,-99.139992,,,0,,1,
STOP_14937,,Las Americas,Estación de Metrobús. Línea 2,19.39348,-99.134842,,,0,,1,
STOP_14938,,Andres Molina,Estación de Metrobús. Línea 2,19.397833,-99.129143,,,0,,1,
STOP_14939,,La Viga,Estación de Metrobús. Línea 2,19.398054,-99.1241,,,0,,1,
STOP_14940,,Canela,Estación de Metrobús. Línea 2,19.397827,-99.109451,,,0,,1,
STOP_14941,,Goma,Estación de Metrobús. Línea 2,19.39687,-99.09948,,,0,,1,
STOP_14942,,Iztacalco,Estación de Metrobús. Línea 2,19.396507,-99.096107,,,0,,1,
STOP_14943,,UPIICSA,Estación de Metrobús. Línea 2,19.393915,-99.090385,,,0,,1,
STOP_14944,,El Rodeo,Estación de Metrobús. Línea 2,19.391872,-99.087463,,,0,,1,
STOP_14945,,Río Tecolutla,Estación de Metrobús. Línea 2,19.388918,-99.083008,,,0,,1,
STOP_14946,,Río Mayo,Estación de Metrobús. Línea 2,19.387106,-99.080261,,,0,,1,
STOP_14947,,Rojo Gomez,Estación de Metrobús. Línea 2,19.38422,-99.07608,,,0,,1,
STOP_14948,,Leyes de Reforma,Estación de Metrobús. Línea 2,19.383402,-99.065933,,,0,,1,
STOP_14949,,CCH Oriente,Estación de Metrobús. Línea 2,19.382845,-99.060692,,,0,,1,
STOP_14950,,Constitución de Apatzingan,Estación de Metrobús. Línea 2,19.38921,-99.059868,,,0,,1,
STOP_14951,,General Antonio de León,Estación de Metrobús. Línea 2,19.38493,-99.051758,,,0,,1,
STOP_14952,,Tepalcates,Estación de Metrobús. Línea 2,19.390709,-99.047417,,,0,,1,
STOP_14953,,Canal de San Juan,Estación de Metrobús. Línea 2,19.396456,-99.056015,,,0,,1,
STOP_14954,,Río Frío,Estación de Metrobús. Línea 2,19.387562,-99.074142,,,0,,2,
STOP_14955,,Del Moral,Estación de Metrobús. Línea 2,19.384201,-99.070885,,,0,,1,
STOP_14956,,Nicolás Bravo,Estación de Metrobús. Línea 2,19.393724,-99.051308,,,0,,1,
STOP_14957,,Centro SCOP,Estación de Metrobús. Línea 2,19.395208,-99.146416,,,0,,1,
STOP_14958,,Doctor Vértiz,Estación de Metrobús. Línea 2,19.395544,-99.151352,,,0,,1,
STOP_14959,,Tlacotal,Estación de Metrobús. Línea 2,19.397196,-99.103523,,,0,,1,
STOP_14960,,Etiopía,Estación de Metrobús. Línea 3,19.396456,-99.156013,,,0,,1,
STOP_14961,,Obrero Mundial,Estación de Metrobús. Línea 3,19.40105058020743,-99.15563464164732,,,0,,1,
STOP_14962,,Centro Médico,Estación de Metrobús. Línea 3,19.406658,-99.155212,,,0,,1,
STOP_14963,,Dr. Márquez,Estación de Metrobús. Línea 3,19.411371,-99.154854,,,0,,1,
STOP_14964,,Hospital General,Estación de Metrobús. Línea 3,19.414339,-99.154648,,,0,,1,
STOP_14965,,Jardín Pushkin,Estación de Metrobús. Línea 3,19.420378,-99.154167,,,0,,1,
STOP_14966,,Cuauhtémoc,Estación de Metrobús. Línea 3,19.424829,-99.153824,,,0,,1,
STOP_14967,,Balderas,Estación de Metrobús. Línea 3,19.427725,-99.148819,,,0,,1,
STOP_14968,,Juárez,Estación de Metrobús. Línea 3,19.431389,-99.148079,,,0,,1,
STOP_14969,,Hidalgo,Estación de Metrobús. Línea 3,19.43594,-99.147194,,,0,,1,
STOP_14970,,Mina,Estación de Metrobús. Línea 3,19.440229,-99.148651,,,0,,1,
STOP_14971,,Guerrero,Estación de Metrobús. Línea 3,19.445732,-99.147278,,,0,,1,
STOP_14972,,Buenavista,Estación de Metrobús. Línea 3,19.446136,-99.152122,,,0,,0,
STOP_14973,,Ricardo Flores Magón,Estación de Metrobús. Línea 3,19.451923,-99.145882,,,0,,0,
STOP_14974,,Tlatelolco,Estación de Metrobús. Línea 3,19.455849,-99.145042,,,0,,1,
STOP_14975,,Tolnahuac,Estación de Metrobús. Línea 3,19.458822,-99.144379,,,0,,1,
STOP_14976,,Circuito,Estación de Metrobús. Línea 3,19.463369,-99.144173,,,0,,2,
STOP_14977,,Hospital La Raza,Estación de Metrobús. Línea 3,19.467674,-99.143768,,,0,,1,
STOP_14978,,La Raza,Estación de Metrobús. Línea 1,19.467573,-99.140831,,,0,,1,
STOP_14979,,Héroe de Nacozari,Estación de Metrobús. Línea 3,19.470719316926502,-99.14483070373535,,,0,,1,
STOP_14980,,Cuitláhuac,Estación de Metrobús. Línea 3,19.473673,-99.145981,,,0,,1,
STOP_14981,,Coltongo,Estación de Metrobús. Línea 3,19.479326,-99.14817,,,0,,2,
STOP_14982,,Magdalena La Salinas,Estación de Metrobús. Línea 3,19.482725,-99.149414,,,0,,1,
STOP_14983,,Poniente 128,Estación de Metrobús. Línea 3,19.489119,-99.151787,,,0,,1,
STOP_14984,,Poniente 134,Estación de Metrobús. Línea 3,19.492285,-99.15303,,,0,,1,
STOP_14985,,Montevideo,Estación de Metrobús. Línea 3,19.49548,-99.154198,,,0,,1,
STOP_14986,,Poniente 146,Estación de Metrobús. Línea 3,19.499525,-99.155724,,,0,,1,
STOP_14987,,La Patera,Estación de Metrobús. Línea 3,19.503313,-99.157166,,,0,,1,
STOP_14988,,Júpiter,Estación de Metrobús. Línea 3,19.508324,-99.159142,,,0,,1,
STOP_14989,,Tres Anegas,Estación de Metrobús. Línea 3,19.515099061196167,-99.16195392608643,,,0,,2,
STOP_14990,,Progreso Nacional,Estación de Metrobús. Línea 3,19.519083337835497,-99.16358470916748,,,0,,1,
STOP_14991,,San José de la Escalera,Estación de Metrobús. Línea 3,19.52287538808323,-99.16580557823181,,,0,,1,
STOP_14992,,Tenayuca,Estación de Metrobús. Línea 3,19.529634,-99.170013,,,0,,1,
STOP_14993,,Buenavista,Estación de Metrobús. Línea 4,19.444862612590953,-99.1522228717804,,,0,,0,
STOP_14994,,Delegación Cuauhtémoc,Estación de Metrobús. Línea 4,19.442595,-99.152412,,,0,,0,
STOP_14995,,Puente de Alvarado,Estación de Metrobús. Línea 4. Ruta Sur,19.439026,-99.153267,,,0,,0,
STOP_14996,,Plaza de la República,Estación de Metrobús. Línea 4. Ruta Sur.,19.436804,-99.154137,,,0,,0,
STOP_14997,,Glorieta de Colón,Estación de Metrobús. Línea 4. Ruta Sur.,19.434158,-99.153534,,,0,,0,
STOP_14998,,Expo Reforma,Estación de Metrobús. Línea 4. Ruta Sur.,19.433365,-99.151009,,,0,,1,
STOP_14999,,Vocacional 5,Estación de Metrobús. Línea 4. Ruta Sur.,19.431589,-99.150215,,,0,,1,
STOP_15000,,Juárez,Estación de Metrobús. Línea 4. Ruta Sur.,19.431305,-99.148384,,,0,,1,
STOP_15001,,Plaza San Juan,Estación de Metrobús. Línea 4. Ruta Sur.,19.430607,-99.143547,,,0,,1,
STOP_15002,,Eje Central,Estación de Metrobús. Línea 4. Ruta Sur.,19.430334,-99.14193,,,0,,1,
STOP_15003,,El Salvador,Estación de Metrobús. Línea 4. Ruta Sur.,19.429874,-99.138535,,,0,,1,
STOP_15004,,Isabel La Católica,Estación de Metrobús. Línea 4. Ruta Sur.,19.429617,-99.137009,,,0,,1,
STOP_15005,,Museo de la Ciudad,Estación de Metrobús. Línea 4. Ruta Sur.,19.429287,-99.133675,,,0,,1,
STOP_15006,,Pino Suárez,Estación de Metrobús. Línea 4. Ruta Sur.,19.426737,-99.134079,,,0,,1,
STOP_15007,,Las Cruces Sur,Estación de Metrobús. Línea 4. Ruta Sur.,19.426155,-99.129921,,,0,,1,
STOP_15008,,La Merced,Estación de Metrobús. Línea 4. Ruta Sur.,19.425447,-99.125946,,,0,,1,
STOP_15009,,Circunvalación,Estación de Metrobús. Línea 4. Ruta Sur.,19.428341,-99.125526,,,0,,1,
STOP_15010,,Mercado Sonora,Estación de Metrobús. Línea 4. Ruta Sur.,19.423182,-99.123917,,,0,,0,
STOP_15011,,Eduardo Molina,Estación de Metrobús. Línea 4. Ruta Sur.,19.427177,-99.116226,,,0,,0,
STOP_15012,,Moctezuma,Estación de Metrobús. Línea 4. Ruta Sur.,19.426893,-99.111977,,,0,,1,
STOP_15013,,Hospital Balbuena,Estación de Metrobús. Línea 4. Ruta Sur.,19.425098,-99.11615,,,0,,0,
STOP_15014,,San Lázaro,Estación de Metrobús. Línea 4,19.43091,-99.115173,,,0,,1,
STOP_15015,,San Lázaro,Estación de Metrobús. Línea 4,19.431116,-99.115425,,,0,,1,
STOP_15016,,Museo San Carlos,Estación de Metrobús. Línea 4. Ruta Norte,19.438274,-99.15078,,,0,,0,
STOP_15018,,Teatro Blanquita,Estación de Metrobús. Línea 4. Ruta Norte,19.438637,-99.139977,,,0,,1,
STOP_15019,,República de Chile,Estación de Metrobús. Línea 4. Ruta Norte,19.437965,-99.135895,,,0,,0,
STOP_15020,,República de Argentina,Estación de Metrobús. Línea 4. Ruta Norte,19.437407,-99.131996,,,0,,0,
STOP_15021,,Teatro del Pueblo,Estación de Metrobús. Línea 4. Ruta Norte,19.436769,-99.127625,,,0,,1,
STOP_15022,,Mixcalco,Estación de Metrobús. Línea 4. Ruta Norte,19.436357,-99.123413,,,0,,1,
STOP_15023,,Ferrocarríl de Cintura,Estación de Metrobús. Línea 4. Ruta Norte,19.436001,-99.121613,,,0,,1,
STOP_15024,,Morelos,Estación de Metrobús. Línea 4. Ruta Norte,19.435814,-99.119003,,,0,,0,
STOP_15025,,Archivo General de la Nación,Estación de Metrobús. Línea 4. Ruta Norte,19.43541316436242,-99.11509037017822,,,0,,1,
STOP_15027,,Terminal 1,Estación de Metrobús. Línea 4,19.435307,-99.083664,,,0,,1,
STOP_15028,,Terminal 2,Estación de Metrobús. Línea 4,19.421476,-99.077248,,,0,,1,
STOP_15029,,Delegación Cuauhtémoc,Estación de Metrobús. Línea 4. Ruta Sur,19.442137,-99.152451,,,0,,0,
STOP_15030,,Puente de Alvarado,Estación de Metrobús. Línea 4. Ruta Sur,19.438641,-99.153458,,,0,,0,
STOP_15031,,Plaza de la República,Estación de Metrobús. Línea 4. Ruta Sur,19.437128,-99.153984,,,0,,0,
STOP_15032,,Glorieta de Colón,Estación de Metrobús. Línea 4. Ruta Sur.,19.435015,-99.153374,,,0,,0,
STOP_15033,,Expo Reforma,Estación de Metrobús. Línea 4. Ruta Sur.,19.433105,-99.150627,,,0,,1,
STOP_15034,,Vocacional 5,Estación de Metrobús. Línea 4. Ruta Sur.,19.431755,-99.150955,,,0,,1,
STOP_15035,,Juárez,Estación de Metrobús. Línea 4. Ruta Sur.,19.431259,-99.147743,,,0,,1,
STOP_15036,,Plaza San Juan,Estación de Metrobús. Línea 4. Ruta Sur.,19.430773,-99.144653,,,0,,1,
STOP_15037,,Eje Central,Estación de Metrobús. Línea 4. Ruta Sur.,19.430304,-99.1408,,,0,,1,
STOP_15038,,El Salvador,Estación de Metrobús. Línea 4. Ruta Sur.,19.430071,-99.13942,,,0,,1,
STOP_15039,,Isabel La Católica,Estación de Metrobús. Línea 4. Ruta Sur.,19.429691,-99.136589,,,0,,1,
STOP_15040,,Museo de la Ciudad,Estación de Metrobús. Línea 4. Ruta Sur.,19.429195,-99.134033,,,0,,1,
STOP_15041,,Las Cruces Norte,Estación de Metrobús. Línea 4. Ruta Sur.,19.428699,-99.129272,,,0,,1,
STOP_15042,,Mercado Sonora,Estación de Metrobús. Línea 4. Ruta Sur.,19.423241,-99.123413,,,0,,0,
STOP_15043,,Cecilio Robelo,Estación de Metrobús. Línea 4. Ruta Sur.,19.425175,-99.119873,,,0,,0,
STOP_15044,,Cecilio Robelo,Estación de Metrobús. Línea 4. Ruta Sur.,19.425484,-99.119041,,,0,,0,
STOP_15045,,Archivo General de la Nación,Estación de Metrobús. Línea 4. Ruta Norte,19.434969,-99.114616,,,0,,1,
STOP_15046,,Morelos,Estación de Metrobús. Línea 4. Ruta Norte,19.435787,-99.118248,,,0,,0,
STOP_15047,,Ferrocarríl de Cintura,Estación de Metrobús. Línea 4. Ruta Norte,19.436142,-99.120811,,,0,,0,
STOP_15048,,Mixcalco,Estación de Metrobús. Línea 4. Ruta Norte,19.436323,-99.124153,,,0,,1,
STOP_15049,,Teatro del Pueblo,Estación de Metrobús. Línea 4. Ruta Norte,19.43685,-99.127045,,,0,,1,
STOP_15050,,República de Argentina,Estación de Metrobús. Línea 4. Ruta Norte,19.437357,-99.131195,,,0,,1,
STOP_15051,,Teatro Blanquita,Estación de Metrobús. Línea 4. Ruta Norte,19.438429,-99.139084,,,0,,1,
STOP_15052,,Bellas Artes,Estación de Metrobús. Línea 4. Ruta Norte,19.436407,-99.141823,,,0,,1,
STOP_15053,,Hidalgo,Estación de Metrobús. Línea 4. Ruta Norte,19.437281,-99.14621,,,0,,1,
STOP_15054,,Museo San Carlos,Estación de Metrobús. Línea 4. Ruta Norte,19.438227,-99.150604,,,0,,0,
STOP_15055,,República de Chile,Estación de Metrobús. Línea 4. Ruta Norte,19.437883,-99.135025,,,0,,1,
STOP_37541,,Potrero,Estación de Metrobús. Línea 1Cuerpo oriente,19.47655572545553,-99.1322672367096,,,0,,2,
STOP_37615,,Buenavista,,19.445459507872492,-99.15223360061646,,,0,,1,
STOP_37650,,La Merced,Estación de Metrobús. Línea 4. Ruta Sur.,19.425062655892706,-99.12557244300842,,,0,,1,
STOP_38760,,Euzkaro,Estación de Metrobús. Línea 1Cuerpo oriente,19.48237169464062,-99.1276216506958,,,0,,2,
STOP_38762,,Deportivo 18 de Marzo,Estación de Metrobús. Línea 1Cuerpo poniente,19.486437691662218,-99.12451028823853,,,0,,2,
STOP_39366,,Río de los Remedios,Descripción ,19.507010677869907,-99.0861976146698,,,0,,1,
STOP_39371,,314-Memorial New's Divine,Descripción ,19.50147502584581,-99.08852577209473,,,0,,1,
STOP_39992,,314-Memorial New's Divine,ESTACIÓN EN DOS CUERPOS,19.50152751416831,-99.08798933029175,,,0,,1,
STOP_39993,,5 de Mayo,ESTACIÓN EN DOBLE CUERPO,19.497583259382676,-99.09024238586426,,,0,,1,
STOP_39994,,5 de Mayo,ESTACIÓN DOBLE CUERPO,19.497451782567317,-99.08980250358582,,,0,,1,
STOP_39995,,Vasco de Quiroga,ESTACIÓN DOBLE CUERPO PTE,19.493699591506154,-99.09180879592896,,,0,,1,
STOP_39996,,Vasco de Quiroga,ESTACIÓN DOBLE CUERPO OTE,19.49361868076772,-99.09143328666687,,,0,,1,
STOP_39997,,El Coyol,ESTACIÓN EN DOBLE CUERPO PTE,19.487176033402122,-99.0945553779602,,,0,,1,
STOP_39998,,El Coyol,ESTACIÓN EN DOBLE CUERPO OTE,19.487034433877312,-99.09424424171448,,,0,,1,
STOP_39999,,Preparatoria 3,ESTACION EN DOBLE CUERPO PTE,19.484151845203947,-99.09588575363159,,,0,,1,
STOP_40000,,Preparatoria 3,ESTACIÓN EN DOBLE CUERPO OTE,19.484030471923493,-99.09553170204163,,,0,,1,
STOP_40001,,Río de Guadalupe,ESTACIÓN EN DOBLE CUERPO PTE,19.475645380944464,-99.09945845603943,,,0,,2,
STOP_40002,,Río de Guadalupe,ESTACION ENDOBLE CUERPO OTE,19.475615036039336,-99.09911513328552,,,0,,1,
STOP_40003,,Talismán,ESTACION EN DOBLE CUERPO PTE,19.47065862526553,-99.10153985023499,,,0,,1,
STOP_40004,,Talismán,ESTACIÓN EN DOBLE CUERPO OTE,19.470537241875405,-99.10130381584167,,,0,,1,
STOP_40005,,San Juan de Aragón,ESTACIÓN EN DOBLE CUERPO PTE,19.479357531461233,-99.09794569015502,,,0,,1,
STOP_40006,,San Juan de Aragón,ESTACIÓN EN DOBLE CUERPO OTE,19.4792766135558,-99.09749507904053,,,0,,1,
STOP_40007,,Victoria,ESTACIÓN EN DOBLE CUERPO PTE,19.46703731502675,-99.10305261611938,,,0,,1,
STOP_40008,,Victoria,ESTACIÓN EN DOBLE CUERPO OTE,19.46697662198701,-99.10277366638184,,,0,,1,
STOP_40009,,Oriente 101,ESTACIÓN EN DOBLE CUERPO PTE,19.461170216115146,-99.10552024841309,,,0,,1,
STOP_40010,,Oriente 101,ESTACIÓN EN DOBLE CUERPO OTE,19.461149984372245,-99.1053056716919,,,0,,1,
STOP_40011,,Río Santa Coleta,ESTACIÓN EN DOBLE CUERPO,19.456344873946144,-99.10741925239563,,,0,,1,
STOP_40012,,Río Santa Coleta,ESTACIÓN EN DOBLE CUERPO OTE,19.45630440925383,-99.10727977752686,,,0,,1,
STOP_40013,,Río Consulado,ESTACIÓN EN DOBLE CUERPO PTE,19.45314813215135,-99.10869598388672,,,0,,1,
STOP_40014,,Río Consulado,ESTACIÓN DOBLE CUERPO OTE,19.453138015779842,-99.10848140716553,,,0,,1,
STOP_40015,,Canal del Norte,ESTACIÓN UN CUERPO DOBLE ACCESO,19.44963771337002,-99.11041259765624,,,0,,1,
STOP_40018,,Deportivo Eduardo Molina,"ESTACIÓN SENCILLA, UN ACCESO",19.445206586411068,-99.11195755004883,,,0,,1,
STOP_40019,,MERCADO MORELOS,"ESTACION SENCILLA, UN ACCESO",19.44070451845013,-99.11364197731018,,,0,,1,
STOP_40020,,ARCHIVO GRAL. DE LA NACIÓN,"ESTACIÓN SENCILLA, UN ACCESO",19.437638993978613,-99.11431789398193,,,0,,1,
STOP_40021,,San Lázaro,TERMINAL EN DOS CUERPOS,19.430900707064094,-99.11532640457153,,,0,,1,
STOP_40022,,San Lázaro,TERMINAL EN DOS CUERPOS DESCENSO,19.430698351781636,-99.11533713340759,,,0,,1,
STOP_132131,,Mixcoac,"Metro Línea 12, correspondencia con línea 7.",19.375678725744336,-99.18686628341675,,,0,,0,
STOP_14050,,Revolución,Metro 2,19.43880248367949,-99.15389657020569,,,0,,0,
STOP_14051,,Morelos,"Metro Línea B, correspondencia con línea 4.",19.438426,-99.11933,,,0,,0,
STOP_14052,,Gómez Farías,Metro 1,19.41608763433028,-99.09070372581482,,,0,,0,
STOP_14053,,Blvd. Puerto Aéreo,Metro 1,19.419588659989447,-99.0960681438446,,,0,,0,
STOP_14054,,Tacubaya,"Metro Línea 1, correspondencia con línea 7 y línea 9.",19.402133375507354,-99.18823957443237,,,0,,0,
STOP_14055,,Observatorio,Metro 1,19.397486,-99.200669,,,0,,0,
STOP_14056,,Viaducto,Metro 2,19.400746991446614,-99.13663387298584,,,0,,0,
STOP_14057,,Xola,Metro 2,19.39502929732389,-99.13758873939514,,,0,,0,
STOP_14058,,Centro Médico,"Metro Línea 3, correspondencia con línea 9.",19.407496647828875,-99.15531277656554,,,0,,0,
STOP_14059,,Etiopía / Plaza de la Transpatencia,Metro 3,19.39604129321701,-99.15617108345032,,,0,,0,
STOP_14060,,Aragón,Metro 5,19.451013563787882,-99.09598231315613,,,0,,0,
STOP_14061,,Oceanía,"Metro Línea 5, correspondencia con línea B.",19.445429157317935,-99.08690571784972,,,0,,0,
STOP_14062,,Tacubaya,"Metro Línea 7, correspondencia con línea 1 y línea 9.",19.402234570961543,-99.1866409778595,,,0,,0,
STOP_14063,,San Pedro de Los Pinos,Metro 7,19.39122413645402,-99.18572902679442,,,0,,0,
STOP_14064,,Santa Anita,"Metro Línea 8, correspondencia con línea 4.",19.403975122920443,-99.12136673927307,,,0,,0,
STOP_14065,,Coyuya,Metro 8,19.39769,-99.113413,,,0,,0,
STOP_14066,,Atlalilco,"Metro Línea 8, correspondencia con línea 12.",19.355708388319435,-99.10157203674316,,,0,,0,
STOP_14067,,Iztapalapa,Metro 8,19.35760127232583,-99.09341812133789,,,0,,0,
STOP_14068,,Puebla,Metro 9,19.40697044780287,-99.08233523368835,,,0,,0,
STOP_14069,,Ciudad Deportiva,Metro 9,19.40811391876628,-99.09135818481444,,,0,,0,
STOP_14070,,Agrícola Oriental,Metro A,19.404045958942977,-99.06982541084288,,,0,,0,
STOP_14071,,Canal de San Juan,Metro A,19.39821706307652,-99.05969738960266,,,0,,0,
STOP_14072,,Oceanía,"Metro Línea B, correspondencia con línea 5.",19.445722545774256,-99.08683061599731,,,0,,0,
STOP_14073,,Romero Rubio,Metro B,19.440481941064473,-99.09420132637024,,,0,,0,
STOP_14074,,Eugenia,Metro 3,19.386285390769533,-99.15724396705627,,,0,,0,
STOP_14075,,Copilco,Metro 3,19.335978573367058,-99.17657732963562,,,0,,0,
STOP_14076,,Universidad,Metro 3,19.324335952867504,-99.17407751083374,,,0,,0,
STOP_14077,,Zapata,"Metro Línea 3, correspondencia con línea 12.",19.370739508650892,-99.16455030441284,,,0,,0,
STOP_14078,,Coyoacán,Metro 3,19.361427462744572,-99.17056918144226,,,0,,0,
STOP_14079,,Mixcoac,"Metro Línea 7, correspondencia con línea 12.",19.37625563272936,-99.18774604797363,,,0,,0,
STOP_14080,,Barranca del Muerto,Metro 7,19.361488195201975,-99.18895840644836,,,0,,0,
STOP_14081,,Viveros,Metro 3,19.35376486958421,-99.17542934417725,,,0,,0,
STOP_14082,,Miguel Ángel de Quevedo,Metro 3,19.34651696012331,-99.1805362701416,,,0,,0,
STOP_14083,,División del Norte,Metro 3,19.378927596332435,-99.15950775146484,,,0,,0,
STOP_14084,,San Antonio,Metro 7,19.384817906726642,-99.18661952018738,,,0,,0,
STOP_14085,,Portales,Metro 2,19.36976784176392,-99.14130091667175,,,0,,0,
STOP_14086,,Ermita,Metro 2,19.361862711522754,-99.14263129234314,,,0,,0,
STOP_14087,,Aculco,Metro 8,19.372925737963993,-99.10739779472351,,,0,,0,
STOP_14088,,Escuadrón 201,Metro 8,19.364494423568246,-99.10931825637817,,,0,,0,
STOP_14089,,General Anaya,Metro 2,19.353198005591064,-99.14478778839111,,,0,,0,
STOP_14090,,Tasqueña,Metro 2,19.344006435966726,-99.14105415344238,,,0,,0,
STOP_14092,,Villa de Cortés,Metro 2,19.38746948894201,-99.13862943649292,,,0,,0,
STOP_14093,,Nativitas,Metro 2,19.37938304030191,-99.13987398147583,,,0,,0,
STOP_14094,,Iztacalco,Metro 8,19.388092,-99.112086,,,0,,0,
STOP_14095,,Apatlaco,Metro 8,19.378298,-99.10934,,,0,,0,
STOP_14096,,Cuauhtémoc,Metro 1,19.42565962396101,-99.15455102920532,,,0,,0,
STOP_14097,,Insurgentes,Metro 1,19.423595521659838,-99.16325211524963,,,0,,0,
STOP_14098,,San Cosme,Metro 2,19.44185786910601,-99.16094541549683,,,0,,0,
STOP_14099,,La Raza,"Metro Línea 3, correspondencia con línea 5.",19.469070518725275,-99.13904786109924,,,0,,0,
STOP_14100,,Tlatelolco,Metro 3,19.45520174250276,-99.14308190345764,,,0,,0,
STOP_14101,,Talismán,Metro 4,19.474158473909544,-99.1077947616577,,,0,,0,
STOP_14102,,Bondojito,Metro 4,19.464508419118317,-99.1117537021637,,,0,,0,
STOP_14103,,La Raza,"Metro Línea 5, correspondencia con línea 3.",19.468965,-99.136176,,,0,,0,
STOP_14104,,Misterios,Metro 5,19.462900020796873,-99.13051843643188,,,0,,0,
STOP_14105,,Norte 45,Metro 6,19.488238025890862,-99.1624903678894,,,0,,0,
STOP_14106,,Vallejo,Metro 6,19.490311419720594,-99.15479779243469,,,0,,0,
STOP_14107,,Refinería,Metro 7,19.469110980231587,-99.18985962867735,,,0,,0,
STOP_14108,,Tacuba,"Metro Línea 7, correspondencia con línea 2.",19.458383,-99.188501,,,0,,0,
STOP_14109,,Centro Médico,"Metro Línea 9, correspondencia con línea 3.",19.406363291811193,-99.15504455566406,,,0,,0,
STOP_14110,,Chilpancingo,Metro 9,19.405756133552956,-99.16830539703368,,,0,,0,
STOP_14111,,Panteones,Metro 2,19.458219,-99.20294,,,0,,0,
STOP_14112,,Tacuba,"Metro Línea 2, correspondencia con línea 7.",19.459136913333747,-99.18803572654724,,,0,,0,
STOP_14113,,San Joaquín,Metro 7,19.445530325811056,-99.19160842895508,,,0,,0,
STOP_14114,,Polanco,Metro 7,19.43337953881342,-99.19079303741455,,,0,,0,
STOP_14115,,Auditorio,Metro 7,19.425305490625824,-99.1917371749878,,,0,,0,
STOP_14116,,Constituyentes,Metro 7,19.411291309142605,-99.19138312339783,,,0,,0,
STOP_14117,,Cuatro Caminos,Metro 2,19.458454,-99.214643,,,0,,0,
STOP_14118,,Sevilla,Metro 1,19.421895653017327,-99.17074084281921,,,0,,0,
STOP_14119,,Chapultepec,Metro 1,19.420256477128603,-99.17658805847168,,,0,,0,
STOP_14120,,Juanacatlán,Metro 1,19.41290021880629,-99.18207049369812,,,0,,0,
STOP_14121,,Patriotismo,Metro 9,19.40559422430129,-99.1784656047821,,,0,,0,
STOP_14122,,Tacubaya,"Metro Línea 9, correspondencia con línea 1 y línea 7.",19.40192086484868,-99.18734908103943,,,0,,0,
STOP_14123,,Popotla,Metro 2,19.452611963592428,-99.17546153068542,,,0,,0,
STOP_14124,,Colegio Militar,Metro 2,19.448646284512794,-99.1712236404419,,,0,,0,
STOP_14125,,Cuitláhuac,Metro 2,19.45668,-99.181555,,,0,,0,
STOP_14126,,Normal,Metro 2,19.444245481262886,-99.1671895980835,,,0,,0,
STOP_14127,,El Rosario,"Metro Línea 6, correspondencia con línea 7.",19.50522895811951,-99.1994833946228,,,0,,0,
STOP_14128,,Tezozómoc,Metro 6,19.494488469086175,-99.19593214988708,,,0,,0,
STOP_14129,,Azcapotzalco,Metro 6,19.490675525164253,-99.1862118244171,,,0,,0,
STOP_14130,,El Rosario,"Metro Línea 7, correspondencia con línea 6.",19.503954700089416,-99.20029878616333,,,0,,0,
STOP_14131,,Aquiles Serdán,Metro 7,19.489367,-99.194511,,,0,,0,
STOP_14132,,Camarones,Metro 7,19.478730416636836,-99.1889476776123,,,0,,0,
STOP_14133,,Ferrería,Metro 6,19.49039233211219,-99.17370200157166,,,0,,0,
STOP_14134,,Candelaria,"Metro Línea 1, correspondencia con línea 4.",19.42909973618756,-99.11989688873291,,,0,,0,
STOP_14135,,Merced,Metro 1,19.425467380246257,-99.12541151046753,,,0,,0,
STOP_14136,,Zócalo,Metro 2,19.432602,-99.131879,,,0,,0,
STOP_14137,,Pino Suárez,"Metro Línea 2, correspondencia con línea 1.",19.425437025954697,-99.13303971290588,,,0,,0,
STOP_14138,,Juárez,Metro 3,19.43336942120971,-99.14771676063538,,,0,,0,
STOP_14139,,Balderas,"Metro Línea 3, correspondencia con línea 1.",19.426924379571048,-99.14881110191345,,,0,,0,
STOP_14140,,Valle Gómez,Metro 5,19.458681692800237,-99.11988615989685,,,0,,0,
STOP_14141,,Bellas Artes,"Metro Línea 8, correspondencia con línea 2.",19.43649573075971,-99.14061427116394,,,0,,0,
STOP_14142,,San Juan de Letrán,Metro 8,19.430981649106492,-99.14116144180298,,,0,,0,
STOP_14143,,La Viga,Metro 8,19.406106,-99.125973,,,0,,0,
STOP_14144,,Jamaica,"Metro Línea 9, correspondencia con línea 4.",19.408943689121642,-99.12227869033812,,,0,,0,
STOP_14145,,Chabacano,"Metro Línea 9, correspondencia con línea 2 y línea 8.",19.408513,-99.135489,,,0,,0,
STOP_14146,,R. Flores Magón,Metro B,19.4362832650267,-99.10342812538147,,,0,,0,
STOP_14147,,San Lázaro,"Metro Línea B, correspondencia con línea 1.",19.431822,-99.114463,,,0,,0,
STOP_14148,,Tepito,Metro B,19.44256606281632,-99.12323355674744,,,0,,0,
STOP_14149,,Isabel la Católica,Metro 1,19.42609470100181,-99.13782477378845,,,0,,0,
STOP_14151,,Niños Héroes,Metro 3,19.4194672383966,-99.15023803710936,,,0,,0,
STOP_14152,,Hospital General,Metro 3,19.413699608253292,-99.1531991958618,,,0,,0,
STOP_14153,,Doctores,Metro 8,19.420499319044268,-99.14335012435913,,,0,,0,
STOP_14154,,Obrera,Metro 8,19.413011526433184,-99.14392948150635,,,0,,0,
STOP_14155,,Chabacano,"Metro Línea 8, correspondencia con línea 2 y línea 9.",19.40853892362356,-99.1357433795929,,,0,,0,
STOP_14156,,Lázaro Cárdenas,Metro 9,19.407021044033204,-99.14433717727661,,,0,,0,
STOP_14157,,Balderas,"Metro Línea 1, correspondencia con línea 3.",19.427298745343045,-99.14912223815918,,,0,,0,
STOP_14158,,Salto del Agua,"Metro Línea 8, correspondencia con línea 1.",19.427207683477906,-99.14207339286804,,,0,,0,
STOP_14159,,Chabacano,"Metro Línea 2, correspondencia con línea 8 y línea 9.",19.408913331744234,-99.13542151451111,,,0,,0,
STOP_14160,,San Antonio Abad,Metro 2,19.41590549798389,-99.13429498672485,,,0,,0,
STOP_14161,,Pino Suárez,"Metro Línea 1, correspondencia con línea 2.",19.425953048139696,-99.13268566131592,,,0,,0,
STOP_14162,,Bellas Artes,"Metro Línea 2, correspondencia con línea 8.",19.435959507184673,-99.14155840873718,,,0,,0,
STOP_14163,,Allende,Metro 2,19.43547386921122,-99.13670897483826,,,0,,0,
STOP_14164,,Guerrero,"Metro Línea 3, correspondencia con línea B.",19.444751326787205,-99.14501309394836,,,0,,0,
STOP_14165,,Garibaldi,"Metro Línea B, correspondencia con línea 8.",19.443376,-99.139954,,,0,,0,
STOP_14166,,Guerrero,"Metro Línea B, correspondencia con línea 3.",19.445226820142476,-99.14635419845581,,,0,,0,
STOP_14167,,Hidalgo,"Metro Línea 2, correspondencia con línea 3.",19.437699697995267,-99.14730906486511,,,0,,0,
STOP_14168,,Hidalgo,"Metro Línea 3, correspondencia con línea 2.",19.436748665793658,-99.14681553840637,,,0,,0,
STOP_14169,,Garibaldi,"Metro Línea 8, correspondencia con línea B.",19.443082,-99.139034,,,0,,0,
STOP_14170,,Buenavista,Metro B,19.446157569060766,-99.15289878845215,,,0,,0,
STOP_14171,,Lagunilla,Metro B,19.443001094563495,-99.13107633590698,,,0,,0,
STOP_14172,,Balbuena,Metro 1,19.422887245219854,-99.10281658172607,,,0,,0,
STOP_14173,,Moctezuma,Metro 1,19.426271,-99.109803,,,0,,0,
STOP_14174,,Fray Servando,Metro 4,19.421490919767205,-99.12033677101135,,,0,,0,
STOP_14175,,Jamaica,"Metro Línea 4, correspondencia con línea 9.",19.41014786052138,-99.12203192710876,,,0,,0,
STOP_14176,,Velódromo,Metro 9,19.40811391876628,-99.10283803939818,,,0,,0,
STOP_14177,,Mixhuca,Metro 9,19.4082049913292,-99.11285877227783,,,0,,0,
STOP_14178,,Santa Anita,"Metro Línea 4, correspondencia con líneas 8.",19.4042584668255,-99.12120580673218,,,0,,0,
STOP_14179,,San Lázaro,"Metro Línea 1, correspondencia con línea B.",19.430799529454372,-99.11457538604736,,,0,,0,
STOP_14181,,Canal del Norte,Metro 4,19.448666517815337,-99.11589503288269,,,0,,0,
STOP_14182,,Morelos,"Metro Línea 4, correspondencia con línea B.",19.439733269436694,-99.11790132522583,,,0,,0,
STOP_14184,,Eduardo Molina,Metro 5,19.451124845296963,-99.10544514656067,,,0,,0,
STOP_14185,,Consulado,"Metro Línea 4, correspondencia con línea 5.",19.456820333324504,-99.11388874053955,,,0,,0,
STOP_14186,,Indios Verdes,Metro 3,19.495315,-99.119141,,,0,,0,
STOP_14187,,Deportivo 18 de Marzo,"Metro Línea 3, correspondencia con línea 6.",19.4840507008099,-99.12543296813965,,,0,,0,
STOP_14188,,Politécnico,Metro 5,19.499964,-99.148806,,,0,,0,
STOP_14190,,Deportivo 18 de Marzo,"Metro Línea 6, correspondencia con línea 3.",19.483585435783585,-99.1257655620575,,,0,,0,
STOP_14191,,La Villa - Basílica,Metro 6,19.481471497417974,-99.11815881729126,,,0,,0,
STOP_14192,,Potrero,Metro 3,19.476413,-99.131748,,,0,,0,
STOP_14193,,Autobuses del Norte,Metro 5,19.478595,-99.140471,,,0,,0,
STOP_14194,,Instituto del Petróleo,"Metro Línea 6, correspondencia con línea 5.",19.489836058603334,-99.1445517539978,,,0,,0,
STOP_14195,,Lindavista,Metro 6,19.487580602790626,-99.13434863090515,,,0,,0,
STOP_14196,,Martín Carrera,"Metro Línea 4, correspondencia con línea 6.",19.48376749617047,-99.1059923171997,,,0,,0,
STOP_14197,,Martín Carrera,"Metro Línea 6, correspondencia con línea 4.",19.48231100734469,-99.1055417060852,,,0,,0,
STOP_14198,,Guelatao,Metro A,19.384595252819803,-99.03579354286194,,,0,,0,
STOP_14199,,Peñón Viejo,Metro A,19.372915616599574,-99.01728630065918,,,0,,0,
STOP_14200,,Tepalcates,Metro A,19.390728244576174,-99.04651165008545,,,0,,0,
STOP_14201,,UAM-I,Metro 8,19.350327,-99.074808,,,0,,0,
STOP_14202,,Constitución de 1917,Metro 8,19.345135,-99.063367,,,0,,0,
STOP_14203,,Cerro de la Estrella,Metro 8,19.355601,-99.085872,,,0,,0,
STOP_14204,,Acatitla,Metro A,19.364251498082222,-99.00597810745239,,,0,,0,
STOP_14205,,Santa Marta,Metro A,19.359804,-98.995894,,,0,,0,
STOP_14206,,Los Reyes,Metro A,19.35877545671117,-98.97670984268188,,,0,,0,
STOP_14207,,La Paz,Metro A,19.35048512921014,-98.96061658859253,,,0,,0,
STOP_14208,,Ciudad Azteca,Metro B,19.534443119509234,-99.02711391448975,,,0,,0,
STOP_14209,,Plaza Aragón,Metro B,19.528224555660035,-99.02979612350464,,,0,,0,
STOP_14210,,Nezahualcóyotl,Metro B,19.472534,-99.054375,,,0,,0,
STOP_14211,,Villa de Aragón,Metro B,19.461352301687533,-99.0611457824707,,,0,,0,
STOP_14212,,Terminal Aérea,Metro 5,19.43380447760007,-99.08820390701294,,,0,,0,
STOP_14213,,Hangares,Metro 5,19.423251,-99.087095,,,0,,0,
STOP_14214,,Pantitlán,"Metro Línea 5, correspondencia con líneas 1, 9 y A.",19.415288256625697,-99.0750503540039,,,0,,0,
STOP_14215,,Pantitlán,"Metro Línea A, correspondencia con líneas 1, 5 y 9.",19.414610300302005,-99.07262563705443,,,0,,0,
STOP_14216,,Pantitlán,"Metro Línea 1, correspondencia con líneas 5, 9 y A.",19.41616858375206,-99.07434225082397,,,0,,0,
STOP_14217,,Zaragoza,Metro 1,19.411797257293816,-99.0832257270813,,,0,,0,
STOP_14219,,Bosque de Aragón,Metro B,19.458074730101153,-99.06927824020386,,,0,,0,
STOP_14220,,Deportivo Oceanía,Metro B,19.450770767503126,-99.07917022705077,,,0,,0,
STOP_14221,,Múzquiz,Metro B,19.500961165546922,-99.04171586036682,,,0,,0,
STOP_14222,,Río de los Remedios,Metro B,19.490240621344796,-99.04635071754456,,,0,,0,
STOP_14223,,Impulsora,Metro B,19.484987,-99.048743,,,0,,0,
STOP_14224,,Olímpica,Metro B,19.520842860214934,-99.03298258781432,,,0,,0,
STOP_14225,,Tecnológico,Metro B,19.51470467314177,-99.03568625450134,,,0,,0,
STOP_14226,,Pantitlán,"Metro Línea 9, correspondencia con líneas 1, 5 y A.",19.414885,-99.072516,,,0,,0,
STOP_14227,,Tláhuac,Metro 12,19.28680057316126,-99.01443243026733,,,0,,0,
STOP_14228,,Tlaltenco,Metro 12,19.294555,-99.023829,,,0,,0,
STOP_14229,,Zapotitlán,Metro 12,19.296390279375885,-99.03402328491211,,,0,,0,
STOP_14230,,Nopalera,Metro 12,19.29939770613229,-99.04621124267578,,,0,,0,
STOP_14231,,Olivos,Metro 12,19.30328601434201,-99.05831336975098,,,0,,0,
STOP_14232,,Tezonco,Metro 12,19.306124,-99.065867,,,0,,0,
STOP_14233,,Periférico Ote,Metro 12,19.317492,-99.074719,,,0,,0,
STOP_14234,,Calle 11,Metro 12,19.32025577734345,-99.08486723899841,,,0,,0,
STOP_14235,,Lomas Estrella,Metro 12,19.322002,-99.096696,,,0,,0,
STOP_14236,,San Andrés Tomatlán,Metro 12,19.327231499493312,-99.10259127616882,,,0,,0,
STOP_14237,,Culhuacán,Metro 12,19.338873913589527,-99.10894274711607,,,0,,0,
STOP_14238,,Mexicaltzingo,Metro 12,19.357449437520774,-99.1219139099121,,,0,,0,
STOP_14239,,Eje Central,Metro 12,19.361184532688743,-99.15133237838745,,,0,,0,
STOP_14240,,Parque de los Venados,Metro 12,19.370466227924492,-99.1576623916626,,,0,,0,
STOP_14241,,Hospital 20 de Nov.,Metro 12,19.371923719836367,-99.17099833488464,,,0,,0,
STOP_14242,,Insurgentes Sur,Metro 12,19.373603867948198,-99.17859435081482,,,0,,0,
STOP_15154,,Consulado,"Metro Línea 5, correspondencia con línea 4.",19.455484997062573,-99.11348104476929,,,0,,0,
STOP_42338,,Salto del Agua,"Metro Línea 1, correspondencia con línea 8.",19.42698508759268,-99.14331793785095,,,0,,0,
STOP_42427,,Atlalilco,"Metro Línea 12, correspondencia con línea 8.",19.352641262251787,-99.10632491111754,,,0,,0,
STOP_42430,,Ermita,Metro Línea 12,19.36030390820232,-99.14483070373535,,,0,,0,
STOP_42432,,Zapata,"Metro Línea 12, correspondencia con línea 3.",19.37054720003935,-99.16540861129761,,,0,,0,
STOP_42487,,Candelaria,"Metro Línea 4, correspondencia con línea 1.",19.42917056126213,-99.11890983581543,,,0,,0,
STOP_42489,,Instituto del Petroleo,"Metro Línea 6, correspondencia con línea 5.",19.490544042737405,-99.14638638496399,,,0,,0,
STOP_41512,,Indios Verdes,Av. Ticomán,19.49343663145835,-99.12019729614258,,,0,,0,
STOP_41513,,Deportivo 18 de Marzo,Parabús Montevideo,19.487530031672346,-99.12451028823853,,,0,,0,
STOP_41514,,Euskaro,Parabús Fortuna,19.48220986180095,-99.12880182266235,,,0,,0,
STOP_41516,,Potrero,Lateral Insurgentes - Ponient 116,19.477152504081413,-99.13302898406982,,,0,,0,
STOP_41517,,La Raza,Insurgentes Metro La Raza,19.468807518688024,-99.1391122341156,,,0,,0,
STOP_41518,,Manuel González,Parabus Manuel Gonzalez,19.457326139643726,-99.14887547492981,,,0,,0,
STOP_41519,,Buenavista,Parabús Mosqueta,19.446440839411146,-99.15338158607483,,,0,,0,
STOP_41520,,Sor Juana,Parabús Sorjuana,19.44454898876666,-99.15408968925476,,,0,,0,
STOP_41521,,Amado Nervo,Parabús Amado Nervo,19.44276840330888,-99.15473341941833,,,0,,0,
STOP_41522,,Revolución,Parabús San Cosme,19.44024924619861,-99.15565609931944,,,0,,0,
STOP_41523,,Plaza de la República,Parabús Gómez Farias,19.4367183136104,-99.15717959403992,,,0,,0,
STOP_41524,,Reforma,Parabús Sullivan,19.43259036383108,-99.15898203849792,,,0,,0,
STOP_41525,,Hamburgo,Parabús Nápoles,19.428664667194724,-99.16083812713623,,,0,,0,
STOP_41526,,Glorieta Insurgentes,Glorieta,19.42416214058891,-99.16345596313477,,,0,,0,
STOP_41527,,Sinaloa,Parabús Sinaloa,19.42171352317951,-99.1636598110199,,,0,,0,
STOP_41528,,Monterrey,Parabús Monterrey,19.419376172142435,-99.16438937187195,,,0,,0,
STOP_41529,,Álvaro Obregón,Parabús Alvaro Obregón,19.417494124798925,-99.16489362716675,,,0,,0,
STOP_41530,,Sonora,Parabús Sonora,19.412869862167547,-99.16638493537903,,,0,,0,
STOP_41531,,MIchoacán,Parabús Michoacán,19.410653812230553,-99.1670823097229,,,0,,0,
STOP_41532,,Campeche,Parabús Campeche,19.409449644577496,-99.16751146316528,,,0,,0,
STOP_41533,,Chilpancingo,Parabús Baja California,19.406322814664488,-99.16851997375488,,,0,,0,
STOP_41534,,Nuevo León,Parabús Tehuantepec,19.403782853560912,-99.16935682296753,,,0,,0,
STOP_41535,,La Piedad,Parabús Ohio,19.39847005768373,-99.17107343673706,,,0,,0,
STOP_41536,,Poliforum,Parabús Filadelfia,19.39286360497005,-99.17289733886717,,,0,,0,
STOP_41537,,Nápoles,Parabús Georgia,19.390374035167106,-99.17372345924376,,,0,,0,
STOP_41538,,Colonia del Valle ,Parabús Nueva York,19.386629488561983,-99.1749358177185,,,0,,0,
STOP_41539,,Ciudad de los Deportes,Parabús Holbein,19.3836236685727,-99.17590141296387,,,0,,0,
STOP_41540,,Porfirio Díaz,Parque Hundido I,19.38042549614992,-99.17701721191406,,,0,,0,
STOP_41541,,Parque Hundido,Parabús Parque Hundido,19.378269730572814,-99.17774677276611,,,0,,0,
STOP_41542,,Millet,Parabús Millet,19.376680720779532,-99.17821884155273,,,0,,0,
STOP_41543,,Felix Cuevas,Parabús Extrenadura,19.3743933291506,-99.17892694473267,,,0,,0,
STOP_41544,,Algeciras,Parabús Algeciras,19.371761776934328,-99.17981743812561,,,0,,0,
STOP_41545,,Río Churubusco,Parabús Río Mixcoac,19.368411547047486,-99.18085813522339,,,0,,0,
STOP_41546,,Teatro Insurgentes,Parabús Perpetua,19.365962090679336,-99.18163061141968,,,0,,0,
STOP_41547,,José María Velasco,Parabús José María Velasco,19.362743327590195,-99.18264985084534,,,0,,0,
STOP_41548,,Francia I,Parabús Juan Pablo II,19.359079123710742,-99.18393731117247,,,0,,0,
STOP_41549,,Francia II,Parabús Juventino Rosas,19.356052550681916,-99.18487071990967,,,0,,0,
STOP_41551,,Olivo,Parabús Jaime Nunó,19.35323849594161,-99.18579339981079,,,0,,0,
STOP_41552,,Altavista,Parabús Pedro L. Ogazón,19.35048512921014,-99.18673753738402,,,0,,0,
STOP_41553,,La Bombilla I,Parabús la Paz,19.34760011789354,-99.18767094612122,,,0,,0,
STOP_41554,,La Bombilla II,Parabús Rey Cuahutémoc,19.342649927005038,-99.18948411941528,,,0,,0,
STOP_41555,,Dr. Galvez,Parabús Ignacio M. Altamirano,19.339754653751566,-99.19057846069336,,,0,,0,
STOP_41562,,Dr. Gálvez,Parabús Altamirano,19.339815394277245,-99.19013857841492,,,0,,0,
STOP_41563,,Dr. Gálvez,Parabús Reu Cuahutémoc,19.342781529114543,-99.18906569480896,,,0,,0,
STOP_41564,,La Bombilla,Parabús La Paz,19.34710409326495,-99.18740272521973,,,0,,0,
STOP_41565,,Altavista,Parabús Vito A. Robles,19.349857517054836,-99.18649077415466,,,0,,0,
STOP_41566,,Olivo,Parabús Juventino Rosas,19.355799490191945,-99.18460249900816,,,0,,0,
STOP_41567,,Francia,Parabús Francia,19.35855276721877,-99.18373346328734,,,0,,0,
STOP_41569,,José Ma. Velasco,José María Velasco,19.361943687911438,-99.18264985084534,,,0,,0,
STOP_41572,,Teatro Insurgentes,Parabús Hermes,19.36411991329282,-99.18189883232117,,,0,,0,
STOP_41573,,Río Churubusco,Parabús Río Chrurubusco,19.36735889262276,-99.18083667755127,,,0,,0,
STOP_41575,,Félix Cuevas,Parabús Félix Cuevas,19.372591732606086,-99.17916297912596,,,0,,0,
STOP_41576,,parque Hundido I,Parabús Millet,19.376437813458118,-99.177907705307,,,0,,0,
STOP_41578,,Parque Hundido II,Parabús Porfirio Díaz,19.3800915061677,-99.17666316032408,,,0,,0,
STOP_41580,,Ciudad de los Deportes,Parabús Eje 6 Sur,19.383026546211486,-99.17572975158691,,,0,,0,
STOP_41585,,Colonia del Valle,Parabús Santa Margarita,19.38542514310704,-99.17494654655457,,,0,,0,
STOP_41589,,Nápoles,Parabús Pasadena,19.390009704685134,-99.17344450950623,,,0,,0,
STOP_41590,,Polifoprum,Parabús Torres Adalid,19.392529640500513,-99.17263984680176,,,0,,0,
STOP_41592,,La Piedad,Parabús División del Norte,19.399694546023177,-99.17036533355713,,,0,,0,
STOP_41594,,Puente de San Jerónimo,"Terminal San Angel,Av Revolución Y Puente De San Jerónimo",19.33686945275027,-99.19322848320007,,,0,,0,
STOP_41595,,Nuevo León,Parabús Chilpancingo,19.40317568567044,-99.1690993309021,,,0,,0,
STOP_41596,,Chilpancingo,Parabús baja California,19.405675178947266,-99.16838049888611,,,0,,0,
STOP_41598,,Campeche,Parabús Coahuila,19.4103097652396,-99.1668140888214,,,0,,0,
STOP_41599,,Sonora,Parabús San Luis Potosí,19.41261688995761,-99.16606307029724,,,0,,0,
STOP_41601,,Alvaro Obregón,Parabús Alvaro Obregón,19.41701855024689,-99.16465759277344,,,0,,0,
STOP_41602,,Monterrey,Parabús Monterrey,19.417898868002517,-99.16441082954407,,,0,,0,
STOP_41604,,Durango,Parabús Puebla,19.42200695448439,-99.16317701339722,,,0,,0,
STOP_41605,,Insurgentes,Liverpool,19.424991829027164,-99.1621470451355,,,0,,0,
STOP_41606,,Hamburgo,Parabús Amburgo,19.427834997513482,-99.16091322898863,,,0,,0,
STOP_41607,,Reforma I,Parabús Reforma,19.42964610024892,-99.16005492210388,,,0,,0,
STOP_41608,,Reforma II,Parabús Sullivan,19.432013656611147,-99.15884256362915,,,0,,0,
STOP_41609,,Plaza de la República i,Parabús Antonio Caso,19.43385506547681,-99.15799498558044,,,0,,0,
STOP_41613,,Plaza de la República II,Parabús Tomas Alva Edison,19.43794251383486,-99.15635347366333,,,0,,0,
STOP_41614,,Eje 10 Sur,"Sentido Norte,Av Revolución Y Eje 10 Sur",19.33850946799468,-99.19204831123352,,,0,,0,
STOP_41615,,Revolución I,Parabús Puente de Alvarado,19.43923752551286,-99.15563464164732,,,0,,0,
STOP_41617,,Altamirano,"Sentido Norte,Av Revolución Y Calle Altamirano",19.339693913203277,-99.19162988662718,,,0,,0,
STOP_41618,,Rey Cuahutémoc,"Sentido Norte,Av Revolución Y Calle Rey Cuauhtemoc",19.342164010604606,-99.1906750202179,,,0,,0,
STOP_41620,,Revolución II,Parabús H. Ferrocarrileros,19.441210375009852,-99.15478706359863,,,0,,0,
STOP_41621,,Dr. Galvez,"Sentido Norte, Av Revolución Y Calle Dr, Gálvez",19.34352052360475,-99.19034242630003,,,0,,0,
STOP_41622,,El Chopo,Parabús Luis Donaldo Colosio,19.442495243584336,-99.15439009666443,,,0,,0,
STOP_41623,,Buenavista,Parabús Mosqueta,19.44587429821595,-99.15310263633728,,,0,,0,
STOP_41624,,Altavista las Flores,"Sentido Norte ,Av Revolución Y Mercado De Las Flores",19.346891510819702,-99.19009566307068,,,0,,0,
STOP_41625,,Manuel González,Parabús Manuel González,19.456709055722595,-99.14895057678223,,,0,,0,
STOP_41626,,Altavista,"Sentido Norte ,Av Revolución Y Av. Altavista",19.347924051530967,-99.19029951095581,,,0,,0,
STOP_41627,,Maria Luisa,"Sentido Norte ,Av Revolución Y Calle María Luisa",19.351132984386435,-99.19031023979187,,,0,,0,
STOP_41629,,San Simón,Parabús San Simón,19.45901552131643,-99.14655804634094,,,0,,0,
STOP_41630,,Fernando Villalpando,"Sentido Norte, Av Revolución Y Calle Fernando Villalpando",19.353147392638732,-99.19008493423462,,,0,,0,
STOP_41631,,Ricardo Castro,"Sentido Norte ,Av Revolución Y Calle Ricardo Castro",19.35561728639605,-99.18974161148071,,,0,,0,
STOP_41633,,Sofia,"Sentido Norte ,Av Revolución Y Sofía",19.357105278106005,-99.18963432312012,,,0,,0,
STOP_41634,,Felipe Villanueva /J.P. II,"Sentido Norte ,Av Revolución Y Calle Juan Pablo Ii",19.36005085430929,-99.18932318687439,,,0,,0,
STOP_41635,,Circuito,Parabús Monumento a la Raza,19.46305175716922,-99.1431677341461,,,0,,0,
STOP_41636,,Metro Barranca del Muerto,"Sentido Norte ,Av Revolución Y  Metro Barranca Del Muerto",19.361528683494345,-99.18909788131714,,,0,,0,
STOP_41638,,José María Velasco,"Sentido Norte ,Av Revolución Y Calle José María Velazco",19.364393204659734,-99.18880820274353,,,0,,0,
STOP_41639,,La Raza,Parabús Metro La Raza,19.468352325307357,-99.1389513015747,,,0,,0,
STOP_41641,,Potrero,Parabús Excelsior,19.47498790672755,-99.13272857666016,,,0,,0,
STOP_41642,,Diego Becerra,"Sentido Norte ,Av Revolución Y Calle Diego Becerra",19.366447936191157,-99.18856143951416,,,0,,0,
STOP_41643,,Euskaro,Parabús Euskaro,19.480793817556112,-99.12790060043335,,,0,,0,
STOP_41644,,Andrés de la Concha,"Sentido Norte ,Av Revolución Y Calle Andrés De La Concha",19.36854312837255,-99.18837904930115,,,0,,0,
STOP_41645,,José del Castillo,"Sentido Norte, Av Revolución Y Calle Andrés De La Concha",19.371589712424583,-99.18803572654724,,,0,,0,
STOP_41646,,Deportivo 18 de Marzo,Parabús Montevideo,19.48660963455992,-99.12312626838684,,,0,,0,
STOP_41647,,Goya,"Sentido Norte , Av Revolución Y Calle Andrés De La Concha",19.373786051642107,-99.18716669082642,,,0,,0,
STOP_41648,,Metro Mixcoac / Empresa,"Sentido Norte, Av Patriotismo Y Metro Mixcoac",19.37602284594616,-99.18666243553162,,,0,,0,
STOP_41650,,Rubens,"Sentido Norte , Av Patriotismo Y Calle De Rubens",19.378239367473615,-99.18584704399109,,,0,,0,
STOP_41651,,Holbein,"Sentido Norte, Av Patriotismo Y  Calle Holbein",19.380729122812205,-99.18490290641783,,,0,,0,
STOP_41652,,Tintoreto," Sentido Norte, Av Patriotismo Y Calle Tintoreto",19.38361354787296,-99.18373346328734,,,0,,0,
STOP_41653,,San Antonio,"Sentido Norte, Av Patriotismo Y Av. San Antonio",19.384878630466588,-99.18318629264832,,,0,,0,
STOP_41654,,Calle 21,"Sentido Norte , Av Patriotismo Y  Calle 21",19.387246838660978,-99.18256402015686,,,0,,0,
STOP_41655,,Calle 17," Sentido Norte, Av Patriotismo y Calle 17",19.388562494996307,-99.18245673179626,,,0,,0,
STOP_41656,,Calle 9,"Sentido Norte , Av Patriotismo Y Calle 9",19.39102173178839,-99.18216705322266,,,0,,0,
STOP_41657,,Puente de la Morena,"Sentido Norte, Av Patriotismo Y Av. Puente De La Morena",19.395272176912155,-99.18140530586243,,,0,,0,
STOP_41658,,Ticoman,Parabús Cantera,19.49092837568496,-99.11975741386414,,,0,,0,
STOP_41659,,11 de Abril,"Sentido Norte, Av Patriotismo  Y Calle 11 De Abril",19.396931844397223,-99.18099761009216,,,0,,0,
STOP_41660,,13 de Septiembre,"Sentido Norte, Av Patriotismo  Y Calle 13 De Septiembre",19.398955806226876,-99.18036460876465,,,0,,0,
STOP_41661,,Martires de la Conquista,"Sentido Norte, Av Patriotismo Y calle  Martires de la Conquista",19.400615436140995,-99.17977452278137,,,0,,0,
STOP_41662,,José Martí,"Sentido Norte, Av Patriotismo Y Calle José Martí",19.402528037422684,-99.17906641960144,,,0,,0,
STOP_41663,,Progreso,"Sentido Norte, Av Patriotismo Y Calle De Progreso",19.4042584668255,-99.1784656047821,,,0,,0,
STOP_41665,,Benjamin Franklin,"Sentido Norte, Av Patriotismo y  Av. Benjamín Franklin",19.40547279225678,-99.17803645133972,,,0,,0,
STOP_41666,,Tamaulipas,"Sentido Norte, Diagonal Patriotismo Y Av. Tamaulipas",19.40680853976004,-99.17852997779846,,,0,,0,
STOP_41667,,Mazatlan,"Sentido Norte, Diagonal Patriotismo Y  Av. Mazatlán",19.40893356999647,-99.17982816696166,,,0,,0,
STOP_41668,,Alfonso Reyes,"Sentido Norte, Diagonal Patriotismo Y  Av. Mazatlán",19.410441312704453,-99.1807508468628,,,0,,0,
STOP_41669,,Metro Juanacatlán,"Sentido Norte, José Vasconcelos Y Metro Juanacatlan",19.412424630814808,-99.18128728866577,,,0,,0,
STOP_41670,,Juan Escutia,"Sentido Norte, Lateral De Circuito Interior  Y Calle Juan Escutia",19.41663404214498,-99.17892694473267,,,0,,0,
STOP_41671,,Agustin Melgar,"Sentido Norte, Lateral De Circuito  Interior Y Calle Agustín Melgar",19.419022025113367,-99.17759656906128,,,0,,0,
STOP_41672,,Metro Chapultepec,Terminal Chapultepec.,19.4207320422063,-99.17556881904602,,,0,,0,
STOP_41673,,Metro Juanacatlan,"Sentido Sur, General Pedro Antonio De Los Santos Y Metro Juanacatlan",19.412819267757047,-99.18210268020628,,,0,,0,
STOP_41674,,Ignacio Esteva,"Sentido Sur, General Pedro Antonio De Los Santos Y Metro Juanacatlan",19.409601430907273,-99.18358325958252,,,0,,0,
STOP_41675,,Benjamin Franklin,"Sentido Sur, Av Revolución Y Av. Benjamín Franklin",19.408032965334204,-99.18425917625426,,,0,,0,
STOP_41676,,Progreso,"Sentido Sur, Av Revolución Y Calle Progreso",19.406413888230393,-99.18445229530334,,,0,,0,
STOP_41677,,José Martí,"Sentido Sur, Av Revolución Y Calle José Martí",19.403337597329497,-99.18470978736877,,,0,,0,
STOP_41678,,José María Vigil,"Sentido Sur, Av Revolución Y Calle José María Vigil",19.40146548393103,-99.18481707572937,,,0,,0,
STOP_41679,,Heroes de 1810,"Sentido Sur, Av Revolución Y Calle De Héroes De 1810",19.399046883917272,-99.1850209236145,,,0,,0,
STOP_41680,,11 de Abril,"Sentido Sur, Av Revolución Y Calle De Héroes De 1810",19.39601093343177,-99.18539643287659,,,0,,0,
STOP_41681,,Calle 2,"Sentido Sur, Av Revolución Y Calle De Héroes De 1810",19.3924183188584,-99.18579339981079,,,0,,0,
STOP_41682,,Metro San Pedro de los Pinos,"Sentido Sur, Av Revolución Y Calle De Héroes De 1810",19.391193775770223,-99.18595433235168,,,0,,0,
STOP_41683,,Calle 10,"Sentido Sur, Av Revolución Y Calle 10",19.389088754553505,-99.18615818023682,,,0,,0,
STOP_41684,,Calle 22,"Sentido Sur, Av Revolución Y Calle 22",19.385850207225953,-99.18654441833496,,,0,,0,
STOP_41685,,Metro San Antonio,"Sentido Sur, Av Revolución Y Calle 22",19.384878630466588,-99.18669462203978,,,0,,0,
STOP_41686,,Rembrandt,"Sentido Sur, Av Revolución Y Calle 22",19.38118456174434,-99.18708086013794,,,0,,0,
STOP_41687,,Murillo,"Sentido Sur, Av Revolución Y Calle De Murillo",19.379018685228203,-99.18731689453125,,,0,,0,
STOP_41688,,Metro Mixcoac,"Sentido Sur, Av Revolución Y Metro Mixcoac",19.37619490577451,-99.18774604797363,,,0,,0,
STOP_41689,,Tiziano,"Sentido Sur, Av Revolución Y Metro Mixcoac",19.373138286471665,-99.18813228607178,,,0,,0,
STOP_41690,,Los Echave,"Sentido Sur, Av Revolución Y Calle Los Echave",19.371943962687812,-99.18831467628479,,,0,,0,
STOP_41691,,Castañeda,"Sentido Sur, Av Revolución Y Calle Castañeda",19.37094193852315,-99.18845415115356,,,0,,0,
STOP_41692,,Miguel Cabrera,"Sentido Sur, Av Revolución Y Calle Miguel Cabrera",19.369312370916383,-99.18863654136658,,,0,,0,
STOP_41693,,Merced Gómez,"Sentido Sur, Av Revolución Y Calle Miguel Cabrera",19.36635684026799,-99.18892621994019,,,0,,0,
STOP_41694,,Juan Tinoco,"Sentido Sur, Av Revolución Y Calle De Juan Tinoco",19.364666495568503,-99.1891086101532,,,0,,0,
STOP_41695,,Barranca del Muerto,"Sentido Sur, Av Revolución Y Metro Barranca Del Muerto",19.361528683494345,-99.18949484825133,,,0,,0,
STOP_41696,,Sofía,"Sentido Sur, Av Revolución Y Calle De Sofía",19.3575607830583,-99.18984889984131,,,0,,0,
STOP_41697,,Roberto Böcker,"Sentido Sur, Av Revolución Y Calle Bocker",19.356072795504147,-99.1900634765625,,,0,,0,
STOP_41698,,Tlacopac,"Sentido Sur, Av Revolución Y Calle Tlacopac",19.354028055768563,-99.19029951095581,,,0,,0,
STOP_41699,,María Luisa,"Sentido Sur, Av Revolución Y Calle María Luisa",19.35126457965477,-99.19061064720154,,,0,,0,
STOP_41700,,Altavista,"Sentido Sur, Av Revolución Y Av. Altavista",19.348622531248406,-99.19070720672607,,,0,,0,
STOP_41701,,Altavista las Flores,"Sentido Sur, Av Revolución Y Altavista Frente Al Mercado De Las Flores",19.34684089591096,-99.19032096862792,,,0,,0,
STOP_41702,,Dr. Galvez,"Sentido Sur, Av Revolución Y Calle Dr. Gálvez",19.343854588509014,-99.19049263000488,,,0,,0,
STOP_41703,,Rey Cuauhtémoc,"Sentido Sur, Av Revolución Y Calle Rey Cuauhtémoc",19.34226524330731,-99.19090032577515,,,0,,0,
STOP_41704,,Altamirano,"Sentido Sur, Av Revolución Y Calle De Altamirano",19.340007739126147,-99.19174790382385,,,0,,0,
STOP_41705,,Eje 10 Sur,"Sentido Sur, Av Revolución Y Eje 10 Sur",19.33874230832968,-99.19226288795471,,,0,,0,
STOP_132396,,"Cierre de Circuito,Circuito Interior - Avenida Oceania",,19.445591026876663,-99.08724904060362,,,0,,0,
STOP_132397,,"Cierre de Circuito,Circuito Interior - Avenida Oceanía ",,19.44533810562019,-99.08677697181702,,,0,,0,
STOP_133988,,Avenida Santa Fe - Juan O'Gorman,,19.359747189119275,-99.26952123641968,,,0,,0,
STOP_133990,,Avenida Chapultepec - Las Flores,,19.416785821767544,-99.17954921722412,,,0,,0,
STOP_133992,,Avenida Chapultepec - Metro Sevilla,,19.42168316818669,-99.1707193851471,,,0,,0,
STOP_133993,,Avenida Chapultepec - Metro Chapultepec,,19.420914173144105,-99.17423844337463,,,0,,0,
STOP_136276,,Avenida 5 De Mayo - Centenario,,19.361933565865055,-99.2249858379364,,,0,,0,
STOP_15175,,CETRAM Metro San Lázaro - Paradero Lado Norte,Saliendo del Metro Linea - B,19.43136612325701,-99.11458611488342,,,0,,0,
STOP_15176,,Avenida Ingeniero Eduardo Molina - Calzada Ignacio Zaragoza,Pasando la Estacion del Metrobus Eduardo Molina,19.42923126844435,-99.11524057388306,,,0,,0,
STOP_15198,,Terminal Cetram Metro Santa Martha,,19.3602431753038,-98.99542093276978,,,0,,0,
STOP_15205,,Xocoyote - Xanticas,,19.43114353307027,-99.06212210655212,,,0,,0,
STOP_15208,,Calzada Ermita Iztapalapa - San Miguel,,19.347276183613026,-99.01930332183838,,,0,,0,
STOP_15210,,Calzada Ermita Iztapalapa - Quebradora,,19.345626133391637,-99.02066588401794,,,0,,0,
STOP_15211,,Calzada Ermita Iztapalapa - Jalisco,,19.344826409797108,-99.02517199516296,,,0,,0,
STOP_15213,,Eje 5 Norte Avenida San Juan de Aragón - Ferrocarril Hidalgo,,19.48242226736985,-99.10607814788818,,,0,,0,
STOP_15214,,Eje 5 Norte Avenida San Juan de Aragón - Avenida 5 de Febrero,,19.48441482033283,-99.113609790802,,,0,,0,
STOP_15215,,5 de Febrero - Mariano Abasolo,,19.48699397684749,-99.11286950111388,,,0,,0,
STOP_15216,,Cantera - Hidalgo,,19.487712087624224,-99.11359906196594,,,0,,0,
STOP_15217,,Prolongación Misterios - Albarradón,,19.489836058603334,-99.11799788475037,,,0,,0,
STOP_15218,,Prolongación Misterios - Insurgentes,,19.491413847577633,-99.1197144985199,,,0,,0,
STOP_15219,,Ticoman - Coquimbo,,19.49472108610007,-99.12205338478088,,,0,,0,
STOP_15221,,Ticoman - Cienfuegos,,19.498867681113477,-99.12449955940247,,,0,,0,
STOP_15224,,Juan De Dios Bátiz - Avenida Instituto Politécnico Nacional,,19.502892810729882,-99.13135528564453,,,0,,0,
STOP_15226,,Avenida Miguel Bernard -Juan de Dios Bátiz ,,19.503428812896892,-99.13339376449585,,,0,,0,
STOP_15227,,Calzada Ermita Iztapalapa - Tinacos,,19.344127913831183,-99.03256416320801,,,0,,0,
STOP_15228,,Calzada Ermita Iztapalapa - Calle 17,,19.3437432336169,-99.035804271698,,,0,,0,
STOP_15229,,Calzada Ermita Iztapalapa - Calle 39,,19.343318059693637,-99.04044985771179,,,0,,0,
STOP_15230,,Calzada Ermita Iztapalapa - Calle 55,,19.34300424013506,-99.0438401699066,,,0,,0,
STOP_15231,,Calzada Ermita Iztapalapa - Calle 71,,19.342710666453385,-99.04747724533081,,,0,,0,
STOP_15232,,Avenida Miguel Bernard - Escuela de Ingenieros,,19.505795291799604,-99.13566827774048,,,0,,0,
STOP_15233,,Calzada Ermita Iztapalapa - 2 De Abril,,19.34223487350308,-99.0522837638855,,,0,,0,
STOP_15234,,Avenida Miguel Bernard - Luis Enrique Erro,,19.507251569300145,-99.1371488571167,,,0,,0,
STOP_15236,,Calzada Ermita Iztapalapa - Tulipán,,19.342761282643064,-99.05644655227661,,,0,,0,
STOP_15238,,Calzada Ermita Iztapalapa - Periférico,,19.344451854361015,-99.06012654304504,,,0,,0,
STOP_15239,,Calzada Ermita Iztapalapa - Metro Constitución De 1917,,19.345990563096905,-99.06338810920715,,,0,,0,
STOP_15240,,Xocoyote - Xico,,19.430840000505825,-99.05965447425842,,,0,,0,
STOP_15242,,Calzada Ermita Iztapalapa - M. Rodríguez,,19.347954420276505,-99.06781911849976,,,0,,0,
STOP_15245,,Calzada Ermita Iztapalapa - San Felipe De Jesús,,19.350495251967057,-99.07356977462769,,,0,,0,
STOP_15246,,Xocoyote	- Xana,,19.430910824821602,-99.06104922294617,,,0,,0,
STOP_15247,,Miguel Othón de Mendizábal - Avenida del Carrizo,,19.50865726917224,-99.14251327514648,,,0,,0,
STOP_15249,,Miguel Othón de Mendizábal - 100 Metros,,19.505421107268944,-99.15063500404358,,,0,,0,
STOP_15250,,Miguel Othón de Mendizábal - Calzada Vallejo,,19.5030950759072,-99.15695428848267,,,0,,0,
STOP_15251,,Calzada Ermita Iztapalapa - Metro UAM,,19.35110261623253,-99.07491087913513,,,0,,0,
STOP_15254,,Avenida Poniente 152 - Norte 45,,19.50293326378558,-99.15736198425293,,,0,,0,
STOP_15255,,Avenida Poniente 152 - Norte 59,,19.504682848764347,-99.16295170783997,,,0,,0,
STOP_15257,,Avenida Poniente 152 - Ex-Hacienda,,19.506189701584045,-99.16730761528015,,,0,,0,
STOP_15259,,Avenida Poniente 152 - Sol de México,,19.507201004328884,-99.17052626609802,,,0,,0,
STOP_15263,,Avenida Ceylan - Poniente 150,,19.507433603065746,-99.17536497116089,,,0,,0,
STOP_15264,,Avenida Ceylan - Poniente 148,,19.505967214131573,-99.17478561401367,,,0,,0,
STOP_15265,,Avenida Ceylan - Poniente 146,,19.503165868659526,-99.17373418807983,,,0,,0,
STOP_15267,,Avenida Ceylan - Poniente 134,,19.49594484836262,-99.17090177536011,,,0,,0,
STOP_15269,,Azcapotzalco/La Villa - Avenida Granjas,,19.490766551397215,-99.1734766960144,,,0,,0,
STOP_15270,,Avenida Granjas - Avenida Hidalgo,,19.492678090465358,-99.17322993278503,,,0,,0,
STOP_15271,,Avenida Granjas - Rastro,,19.496571896514894,-99.17366981506348,,,0,,0,
STOP_15272,,Avenida Granjas - Tec. Milenio,,19.499605966155286,-99.17484998703003,,,0,,0,
STOP_15274,,Avenida Granjas - Matlacoatl,,19.501052185994773,-99.1752576828003,,,0,,0,
STOP_15276,,Eje 5 Norte Avenida Deportivo Reynosa - Tecno-Parque,,19.501365700478786,-99.17665243148804,,,0,,0,
STOP_15280,,San Pablo - UAM ,,19.50363107740403,-99.18330430984497,,,0,,0,
STOP_15284,,Xochitlán Sur	- Xochistláhuaca  ,,19.429625864575705,-99.05809879302979,,,0,,0,
STOP_15285,,San Pablo - Unidad Tepaltongo,,19.501042072614208,-99.18394804000854,,,0,,0,
STOP_15286,,San Pablo - Calzada Real de San Martin,,19.49675394229756,-99.18480634689331,,,0,,0,
STOP_15287,,Gasoducto - Pozo Pedregal,,19.49560098221536,-99.18654441833496,,,0,,0,
STOP_15288,,Xochitlán Sur - Meztli,,19.428189125334786,-99.05694007873535,,,0,,0,
STOP_15289,,Campo Nuevo Limón - Refineria Azcapotzalco,,19.491504873395417,-99.18820738792418,,,0,,0,
STOP_15290,,Acolhuacan - Chimalpopoca,,19.426307180063393,-99.0568220615387,,,0,,0,
STOP_15291,,Calzada De Guadalupe - San Simón,,19.48963377685348,-99.186372756958,,,0,,0,
STOP_15292,,San Simón - Sevilla,,19.487823343938494,-99.1864800453186,,,0,,0,
STOP_15293,,San Simón - Aragón,,19.486093805319072,-99.18623328208922,,,0,,0,
STOP_15294,,Acolhuacan - Cuitláhuac,,19.425082892134323,-99.05689716339111,,,0,,0,
STOP_15295,,Zaragoza - Castilla,,19.484566536559104,-99.18661952018738,,,0,,0,
STOP_15296,,Zaragoza - Castilla,,19.48264478719088,-99.1872203350067,,,0,,0,
STOP_15297,,Acolhuacan - Rey Maxtla,,19.424040722413313,-99.0565538406372,,,0,,0,
STOP_15298,,Acolhuacan - Circunvalación,,19.422259912080555,-99.0567147731781,,,0,,0,
STOP_15300,,Anillo de Circunvalación	- Meztli,,19.422371213298135,-99.0572726726532,,,0,,0,
STOP_15301,,Reforma - Lerdo de Tejada,,19.47987338215814,-99.18776750564575,,,0,,0,
STOP_15302,,Reforma - Manuel Acuña,,19.478831564353367,-99.18804645538329,,,0,,0,
STOP_15303,,Tenochtitlán - Circunvalación,,19.422664643415384,-99.05892491340637,,,0,,0,
STOP_15304,,Centenario - Aquiles Elorduy,,19.47455296077929,-99.18848633766174,,,0,,0,
STOP_15305,,José F. Gutiérrez - Invierno,,19.46978870896074,-99.18858289718628,,,0,,0,
STOP_15306,,José F. Gutiérrez - Otoño,,19.46778586064832,-99.18876528739929,,,0,,0,
STOP_15307,,José F. Gutiérrez - Estío,,19.465793103169958,-99.18896913528442,,,0,,0,
STOP_15308,,Tenochtitlán - Iztacihuatl,,19.42448592194694,-99.06054496765137,,,0,,0,
STOP_15309,,Estío - Azcapotzalco,,19.465681831725693,-99.18779969215393,,,0,,0,
STOP_15310,,Floresta - Egipto,,19.4644376094651,-99.18679118156433,,,0,,0,
STOP_15311,,Grecia - Niza,,19.463264187851948,-99.18428063392639,,,0,,0,
STOP_15312,,Grecia - Bocanegra,,19.462212147461106,-99.18256402015686,,,0,,0,
STOP_15313,,Grecia - Venecia,,19.461241027195364,-99.18090105056763,,,0,,0,
STOP_15314,,Venecia - Benito Juárez,,19.45991584328262,-99.1817808151245,,,0,,0,
STOP_15315,,Netzahualcóyotl - Cacamatzin,,19.424708521256328,-99.0616500377655,,,0,,0,
STOP_15317,,Calzada México Tacuba - Mar Baffin,,19.45850972026613,-99.18403387069702,,,0,,0,
STOP_15318,,Netzahualcóyotl - Tizoc,,19.424850175203506,-99.06272292137146,,,0,,0,
STOP_15320,,Netzahualcóyotl - Atzayacatl,,19.425012065277624,-99.0642464160919,,,0,,0,
STOP_15321,,Netzahualcóyotl - Moctezuma,,19.4251638370756,-99.06530857086182,,,0,,0,
STOP_15322,,Caracol -	Prolongación Río Churubusco,,19.425325726837187,-99.06638145446776,,,0,,0,
STOP_15323,,Caracol - Tortuga,,19.425497734532126,-99.06806588172913,,,0,,0,
STOP_15324,,Caracol - Langosta,,19.42568997821097,-99.06969666481018,,,0,,0,
STOP_15325,,Caracol  -	Coral,,19.425882221662324,-99.07119870185852,,,0,,0,
STOP_15326,,Caracol - Jaiba,,19.426064346827463,-99.0722608566284,,,0,,0,
STOP_15327,,Jaiba - Camarón,,19.425012065277624,-99.07241106033325,,,0,,0,
STOP_15328,,Agustín Olachea Avilés - Javier Barros Sierra,,19.423605639872317,-99.07261490821838,,,0,,0,
STOP_15329,,Agustín Olachea Avilés -	Ernesto P. Uruchurtú,,19.422128374179692,-99.0727972984314,,,0,,0,
STOP_15330,,Agustín Olachea Avilés -	Jaime Torres Bodet,,19.420661213453137,-99.07309770584106,,,0,,0,
STOP_15331,,Agustín Olachea Avilés -	Benito Coquet,,19.419226382672502,-99.07326868979526,,,0,,0,
STOP_15332,,Agustín Olachea Avilés -	Gustavo Díaz Ordaz,,19.417969697959517,-99.0734302997589,,,0,,0,
STOP_15333,, Cetram Metro Pantitlán -	Pantitlán,,19.416553092955002,-99.07462120056152,,,0,,0,
STOP_15347,, Terminal Santa Catarina,Eje 10 Sur - Hospital Psiquiátrico,19.32162259686926,-98.95885705947876,,,0,,0,
STOP_15349,,Eje 10 Sur - Entrada Autopista A Puebla,,19.3228476624326,-98.95694732666016,,,0,,0,
STOP_15356,,Autopista México/Puebla - La Virgen,,19.342022284715316,-98.97756814956664,,,0,,0,
STOP_15359,,Eje 6 Sur Avenida De Las Torres - Juan Escutia,,19.345808348345997,-98.98416638374329,,,0,,0,
STOP_15369,,Eje 6 Sur Avenida De Las Torres - Lázaro Cárdenas,,19.3463651150015,-98.9871597290039,,,0,,0,
STOP_15370,,Eje 5 Sur Avenida De Las Torres - Unión De Colonos / Plaza Civica,,19.346608067128585,-98.9903461933136,,,0,,0,
STOP_15376,,Eje 6 Sur Avenida De Las Torres - Olvido,,19.347407781992032,-98.99255633354186,,,0,,0,
STOP_15378,,Eje 6 Sur Avenida De Las Torres - Francisco Montes de Oca/ Pipila,,19.34758999495698,-98.99545311927795,,,0,,0,
STOP_15382,,Eje 6 Sur Avenida De Las Torres - Miguel De La  Madrid,,19.34824798452533,-98.99677276611328,,,0,,0,
STOP_15389,,Eje 6 Sur Avenida De Las Torres - Pino,,19.349098305575836,-99.00140762329102,,,0,,0,
STOP_15392,,Eje 6 Sur Avenida De Las Torres - Cuauhtémoc,,19.349442481884072,-99.00371432304381,,,0,,0,
STOP_15398,,Eje 6 Sur Avenida De Las Torres - Octavio Senties,,19.351122861669094,-99.0117609500885,,,0,,0,
STOP_15399,,Eje 6 Sur Avenida De Las Torres - Eje 8 Sur Calzada Ermita - Iztapalapa,,19.35220598886306,-99.01427149772644,,,0,,0,
STOP_15402,,Calzada Ignacio Zaragoza - Eje 3 Oriente Francisco Del Paso Y Troncoso,Parabus Antes de la Curva,19.427501104860603,-99.11185026168823,,,0,,0,
STOP_15403,,Eje 6 Sur Avenida De Las Torres - Juan N. Álvarez,,19.354250751439036,-99.0182089805603,,,0,,0,
STOP_15406,,Eje 6 Sur Avenida De Las Torres - Avenida México,,19.356730750858837,-99.02284383773804,,,0,,0,
