stop_id,stop_code,stop_name,stop_desc,stop_lat,stop_lon,zone_id,stop_url,location_type,parent_station
1059N,,San Pedrito,,-34.630922591443,-58.470433205504,4,,0,1059
1060N,,San José de Flores,,-34.629054501979,-58.463536343831,4,,0,1060
1061N,,Carabobo,,-34.626422392738,-58.456044495010,4,,0,1061
1062N,,Puán,,-34.623571847053,-58.448787778687,4,,0,1062
1063N,,Primera Junta,,-34.620460192436,-58.441400975016,4,,0,1063
1064N,,Acoyte,,-34.618036012360,-58.435862213379,4,,0,1064
1065N,,Río de Janeiro,,-34.615111439413,-58.429285879212,4,,0,1065
1066N,,Castro Barros,,-34.611763606902,-58.421728313005,4,,0,1066
1067N,,Loria,,-34.610811060554,-58.415152877453,4,,0,1067
1068N,,Plaza Miserere,,-34.609688,-58.406813889700,4,,0,1068
1070N,,Pasco,,-34.609664444429,-58.398340314029,4,,0,1070
1071N,,Congreso,,-34.609241487037,-58.392670601487,4,,0,1071
1072N,,Sáenz Peña,,-34.609416989391,-58.386668153102,4,,0,1072
1073N,,Lima,,-34.609105721538,-58.382521122784,4,,0,1073
1074N,,Piedras,,-34.608837932068,-58.378502407734,4,,0,1074
1075N,,Perú,,-34.608559343180,-58.374563008418,4,,0,1075
1076N,,Plaza de Mayo,,-34.608695109514,-58.371493220293,4,,0,1076
1059S,,San Pedrito,,-34.630922591443,-58.470433205504,4,,0,1059
1060S,,San José de Flores,,-34.629054501979,-58.463536343831,4,,0,1060
1061S,,Carabobo,,-34.626422392738,-58.456044495010,4,,0,1061
1062S,,Puán,,-34.623571847053,-58.448787778687,4,,0,1062
1063S,,Primera Junta,,-34.620460192436,-58.441400975016,4,,0,1063
1064S,,Acoyte,,-34.618036012360,-58.435862213379,4,,0,1064
1065S,,Río de Janeiro,,-34.615111439413,-58.429285879212,4,,0,1065
1066S,,Castro Barros,,-34.611763606902,-58.421728313005,4,,0,1066
1067S,,Loria,,-34.610811060554,-58.415152877453,4,,0,1067
1068S,,Plaza Miserere,,-34.609688,-58.406813889700,4,,0,1068
1069S,,Alberti,,-34.609832012885,-58.400719910883,4,,0,1069
1071S,,Congreso,,-34.609241487037,-58.392670601487,4,,0,1071
1072S,,Sáenz Peña,,-34.609416989391,-58.386668153102,4,,0,1072
1073S,,Lima,,-34.609105721538,-58.382521122784,4,,0,1073
1074S,,Piedras,,-34.608837932068,-58.378502407734,4,,0,1074
1075S,,Perú,,-34.608559343180,-58.374563008418,4,,0,1075
1076S,,Plaza de Mayo,,-34.608695109514,-58.371493220293,4,,0,1076
1077N,,Juan Manuel de Rosas,,-34.574011003989,-58.486718237493,4,,0,1077
1078N,,Echeverría,,-34.577998380396,-58.480763733193,4,,0,1078
1079N,,De Los Incas - Parque Chas,,-34.581941400922,-58.472949117288,4,,0,1079
1080N,,Tronador - Villa Ortúzar,,-34.584319159038,-58.465676307586,4,,0,1080
1134O,,Hospitales,,-34.641752739715,-58.412673175271,4,,0,1134
1135O,,Parque Patricios,,-34.638460262593,-58.406328409852,4,,0,1135
1136O,,Caseros,,-34.635265854589,-58.399158865153,4,,0,1136
1137O,,Inclán,,-34.629351188776,-58.400986790654,4,,0,1137
1138O,,Humberto 1,,-34.623116366744,-58.402322201144,4,,0,1138
1139O,,Venezuela,,-34.615227118506,-58.404758647205,4,,0,1139
1140O,,Once,,-34.609147664305,-58.406046778011,4,,0,1140
1141O,,Corrientes,,-34.603923811372,-58.405317217086,4,,0,1141
1134E,,Hospitales,,-34.641752739715,-58.412673175271,4,,0,1134
1135E,,Parque Patricios,,-34.638460262593,-58.406328409852,4,,0,1135
1136E,,Caseros,,-34.635265854589,-58.399158865153,4,,0,1136
1137E,,Inclán,,-34.629351188776,-58.400986790654,4,,0,1137
1138E,,Humberto 1,,-34.623116366744,-58.402322201144,4,,0,1138
1139E,,Venezuela,,-34.615227118506,-58.404758647205,4,,0,1139
1140E,,Once,,-34.609147664305,-58.406046778011,4,,0,1140
1141E,,Corrientes,,-34.603923811372,-58.405317217086,4,,0,1141
1142N,,Intendente Saguier,,-34.643258552263,-58.461524902887,5,,0,1142
1143N,,Balbastro,,-34.649265520265,-58.455640019357,5,,0,1143
1144N,,Mariano Acosta,,-34.654438435230,-58.456492782087,5,,0,1144
1145N,,Somellera,,-34.656449351476,-58.453907455721,5,,0,1145
1146N,,Ana María Janer,,-34.659486340020,-58.450007979109,5,,0,1146
1147N,,Ntra. Sra. de Fátima,,-34.660447642203,-58.448783417607,5,,0,1147
1148N,,Fernández de la Cruz,,-34.662234999302,-58.446598243041,5,,0,1148
1149N,,Presidente Illia,,-34.665073164022,-58.448562240935,5,,0,1149
1150N,,Parque de la Ciudad,,-34.669865267294,-58.455109152349,5,,0,1150
1151N,,Cecilia Grierson,,-34.672189284049,-58.457543347854,5,,0,1151
1152N,,Escalada,,-34.674558787808,-58.460167171717,5,,0,1152
1153N,,Pola,,-34.678110629633,-58.464412206378,5,,0,1153
1154N,,Ana Díaz,,-34.680577977821,-58.466877924815,5,,0,1154
1155N,,Centro Cívico,,-34.683539244591,-58.465152180426,5,,0,1155
1156N,,Larrazábal,,-34.680602280154,-58.465343409012,5,,0,1156
1157N,,Nicolas Descalzi,,-34.682798871351,-58.462343924707,5,,0,1157
1158N,,Gabino Ezeiza,,-34.685968042754,-58.458103459038,5,,0,1158
1159N,,General Savio,,-34.689597318341,-58.460816625841,5,,0,1159
1142S,,Intendente Saguier,,-34.643258552263,-58.461524902887,5,,0,1142
1143S,,Balbastro,,-34.649265520265,-58.455640019357,5,,0,1143
1144S,,Mariano Acosta,,-34.654438435230,-58.456492782087,5,,0,1144
1160E,,Córdoba,,-34.598686142195,-58.403805105041,5,,0,1160
1161E,,Santa Fe,,-34.594856588906,-58.402459654070,5,,0,1161
1162E,,Las Heras,,-34.588062575386,-58.39804479425,5,,0,1162
1160O,,Córdoba,,-34.598686142195,-58.403805105041,5,,0,1160
1161O,,Santa Fe,,-34.594856588906,-58.402459654070,5,,0,1161
1162O,,Las Heras,,-34.588062575386,-58.39804479425,5,,0,1162
1145S,,Somellera,,-34.656449351476,-58.453907455721,5,,0,1145
1146S,,Ana María Janer,,-34.659486340020,-58.450007979109,5,,0,1146
1147S,,Ntra. Sra. de Fátima,,-34.660447642203,-58.448783417607,5,,0,1147
1148S,,Fernández de la Cruz,,-34.662234999302,-58.446598243041,5,,0,1148
1149S,,Presidente Illia,,-34.665275116459,-58.448497772341,5,,0,1149
1150S,,Parque de la Ciudad,,-34.669865267294,-58.455109152349,5,,0,1150
1151S,,Cecilia Grierson,,-34.672189284049,-58.457543347854,5,,0,1151
1152S,,Escalada,,-34.674558787808,-58.460167171717,5,,0,1152
1153S,,Pola,,-34.678110629633,-58.464412206378,5,,0,1153
1154S,,Ana Díaz,,-34.680577977821,-58.466877924815,5,,0,1154
1155S,,Centro Cívico,,-34.683539244591,-58.465152180426,5,,0,1155
1156S,,Larrazábal,,-34.680602280154,-58.465343409012,5,,0,1156
1157S,,Nicolas Descalzi,,-34.682798871351,-58.462343924707,5,,0,1157
1158S,,Gabino Ezeiza,,-34.685968042754,-58.458103459038,5,,0,1158
1159S,,General Savio,,-34.689597318341,-58.460816625841,5,,0,1159
1081N,,Federico Lacroze,,-34.587565207891,-58.454097211372,4,,0,1081
1082N,,Dorrego,,-34.591692697391,-58.447618335534,4,,0,1082
1083N,,Angel Gallardo,,-34.602156515827,-58.431022167144,4,,0,1083
1084N,,Malabia,,-34.599048472974,-58.439674973441,4,,0,1084
1085N,,Medrano,,-34.603139517524,-58.421303182836,4,,0,1085
1086N,,Carlos Gardel,,-34.604103190729,-58.411704897892,4,,0,1086
1087N,,Pueyrredón,,-34.604613170616,-58.405234068657,4,,0,1087
1088N,,Pasteur,,-34.604623105662,-58.399357348627,4,,0,1088
1089N,,Callao,,-34.604457527748,-58.392845615810,4,,0,1089
1090N,,Uruguay,,-34.604046341872,-58.387106358997,4,,0,1090
1091N,,Carlos Pellegrini,,-34.603701386103,-58.381378501576,4,,0,1091
1092N,,Florida,,-34.603301786393,-58.374534845324,4,,0,1092
1093N,,Leandro N. Alem,,-34.602967313448,-58.369956314500,4,,0,1093
1077S,,Juan Manuel de Rosas,,-34.574011003989,-58.486718237493,4,,0,1077
1078S,,Echeverría,,-34.577998380396,-58.480763733193,4,,0,1078
1079S,,De Los Incas - Parque Chas,,-34.581941400922,-58.472949117288,4,,0,1079
1080S,,Tronador - Villa Ortúzar,,-34.584319159038,-58.465676307586,4,,0,1080
1081S,,Federico Lacroze,,-34.587565207891,-58.454097211372,4,,0,1081
1082S,,Dorrego,,-34.591692697391,-58.447618335534,4,,0,1082
1083S,,Angel Gallardo,,-34.602156515827,-58.431022167144,4,,0,1083
1084S,,Malabia,,-34.599048472974,-58.439674973441,4,,0,1084
1085S,,Medrano,,-34.603139517524,-58.421303182836,4,,0,1085
1086S,,Carlos Gardel,,-34.604103190729,-58.411704897892,4,,0,1086
1087S,,Pueyrredón,,-34.604613170616,-58.405234068657,4,,0,1087
1088S,,Pasteur,,-34.604623105662,-58.399357348627,4,,0,1088
1089S,,Callao,,-34.604457527748,-58.392845615810,4,,0,1089
1090S,,Uruguay,,-34.604046341872,-58.387106358997,4,,0,1090
1091S,,Carlos Pellegrini,,-34.603701386103,-58.381378501576,4,,0,1091
1092S,,Florida,,-34.603301786393,-58.374534845324,4,,0,1092
1093S,,Leandro N. Alem,,-34.602967313448,-58.369956314500,4,,0,1093
1094O,,Constitución,,-34.627276542920,-58.381431475198,4,,0,1094
1095O,,San Juan,,-34.622676270600,-58.379951566484,4,,0,1095
1096O,,Independencia,,-34.618060292427,-58.380236216020,4,,0,1096
1097O,,Moreno,,-34.612434686061,-58.380517847867,4,,0,1097
1098O,,Avenida de Mayo,,-34.608990925758,-58.380681462661,4,,0,1098
1099O,,Diagonal Norte,,-34.604795306773,-58.379235416539,4,,0,1099
1100O,,Lavalle,,-34.601776224270,-58.378115594396,4,,0,1100
1101O,,General San Martín,,-34.594872221186,-58.377256616835,4,,0,1101
1102O,,Retiro,,-34.591873756182,-58.374748081035,4,,0,1102
1094E,,Constitución,,-34.627276542920,-58.381431475198,4,,0,1094
1095E,,San Juan,,-34.622676270600,-58.379951566484,4,,0,1095
1096E,,Independencia,,-34.618060292427,-58.380236216020,4,,0,1096
1097E,,Moreno,,-34.612434686061,-58.380517847867,4,,0,1097
1098E,,Avenida de Mayo,,-34.608990925758,-58.380681462661,4,,0,1098
1099E,,Diagonal Norte,,-34.604795306773,-58.379235416539,4,,0,1099
1100E,,Lavalle,,-34.601776224270,-58.378115594396,4,,0,1100
1101E,,General San Martín,,-34.594872221186,-58.377256616835,4,,0,1101
1102E,,Retiro,,-34.591873756182,-58.374748081035,4,,0,1102
1103N,,Congreso de Tucumán,,-34.555987572378,-58.462078124285,4,,0,1103
1104N,,Juramento,,-34.562410402122,-58.456280529496,4,,0,1104
1105N,,José Hernández,,-34.566267592324,-58.451968878529,4,,0,1105
1106N,,Olleros,,-34.570246506058,-58.444336652709,4,,0,1106
1107N,,Ministro Carranza,,-34.575205802166,-58.434726297831,4,,0,1107
1108N,,Palermo,,-34.578413560940,-58.425869643601,4,,0,1108
1109N,,Plaza Italia,,-34.581660946057,-58.420978635617,4,,0,1109
1110N,,Scalabrini Ortiz,,-34.585185336263,-58.415824770871,4,,0,1110
1111N,,Bulnes,,-34.588258565847,-58.411264344992,4,,0,1111
1112N,,Agüero,,-34.591698218136,-58.407092839478,4,,0,1112
1113N,,Pueyrredón,,-34.594988137797,-58.403226435199,4,,0,1113
1114N,,Facultad de Medicina,,-34.599719656814,-58.397433534301,4,,0,1114
1115N,,Callao,,-34.599602641978,-58.392240107111,4,,0,1115
1116N,,Tribunales,,-34.601770705188,-58.384459018730,4,,0,1116
1117N,,9 de Julio,,-34.604348245572,-58.380351886286,4,,0,1117
1118N,,Catedral,,-34.607624420959,-58.374257236745,4,,0,1118
1103S,,Congreso de Tucumán,,-34.555987572378,-58.462078124285,4,,0,1103
1104S,,Juramento,,-34.562410402122,-58.456280529496,4,,0,1104
1105S,,José Hernández,,-34.566267592324,-58.451968878529,4,,0,1105
1106S,,Olleros,,-34.570246506058,-58.444336652709,4,,0,1106
1107S,,Ministro Carranza,,-34.575205802166,-58.434726297831,4,,0,1107
1108S,,Palermo,,-34.578413560940,-58.425869643601,4,,0,1108
1109S,,Plaza Italia,,-34.581660946057,-58.420978635617,4,,0,1109
1110S,,Scalabrini Ortiz,,-34.585185336263,-58.415824770871,4,,0,1110
1111S,,Bulnes,,-34.588258565847,-58.411264344992,4,,0,1111
1112S,,Agüero,,-34.591698218136,-58.407092839478,4,,0,1112
1113S,,Pueyrredón,,-34.594988137797,-58.403226435199,4,,0,1113
1114S,,Facultad de Medicina,,-34.599719656814,-58.397433534301,4,,0,1114
1115S,,Callao,,-34.599602641978,-58.392240107111,4,,0,1115
1116S,,Tribunales,,-34.601770705188,-58.384459018730,4,,0,1116
1117S,,9 de Julio,,-34.604348245572,-58.380351886286,4,,0,1117
1118S,,Catedral,,-34.607624420959,-58.374257236745,4,,0,1118
1119N,,Bolívar,,-34.609575380822,-58.374049365518,4,,0,1119
1120N,,Belgrano,,-34.613410392420,-58.378220200429,4,,0,1120
1121N,,Independencia,,-34.618001797393,-58.380904421063,4,,0,1121
1122N,,San José,,-34.622367261066,-58.385392427497,4,,0,1122
1123N,,Entre Ríos,,-34.622759595691,-58.391514569428,4,,0,1123
1124N,,Pichincha,,-34.623133717895,-58.397111669159,4,,0,1124
1125N,,Jujuy,,-34.623878647026,-58.402829468279,4,,0,1125
1126N,,General Urquiza,,-34.624681784582,-58.409617468688,4,,0,1126
1127N,,Boedo,,-34.625545058485,-58.416628092456,4,,0,1127
1128N,,La Plata,,-34.626836228126,-58.425610810552,4,,0,1128
1129N,,José María Moreno,,-34.628084339372,-58.434297814982,4,,0,1129
1130N,,Emilio Mitre,,-34.631632139071,-58.442524820568,4,,0,1130
1131N,,Medalla Milagrosa,,-34.636250121811,-58.450398445176,4,,0,1131
1132N,,Varela,,-34.639566964307,-58.457848280500,4,,0,1132
1133N,,Plaza de los Virreyes,,-34.642770031936,-58.461445122984,4,,0,1133
1119S,,Bolívar,,-34.609575380822,-58.374049365518,4,,0,1119
1120S,,Belgrano,,-34.613410392420,-58.378220200429,4,,0,1120
1121S,,Independencia,,-34.618001797393,-58.380904421063,4,,0,1121
1122S,,San José,,-34.622367261066,-58.385392427497,4,,0,1122
1123S,,Entre Ríos,,-34.622759595691,-58.391514569428,4,,0,1123
1124S,,Pichincha,,-34.623133717895,-58.397111669159,4,,0,1124
1125S,,Jujuy,,-34.623878647026,-58.402829468279,4,,0,1125
1126S,,General Urquiza,,-34.624681784582,-58.409617468688,4,,0,1126
1127S,,Boedo,,-34.625545058485,-58.416628092456,4,,0,1127
1128S,,La Plata,,-34.626836228126,-58.425610810552,4,,0,1128
1129S,,José María Moreno,,-34.628084339372,-58.434297814982,4,,0,1129
1130S,,Emilio Mitre,,-34.631632139071,-58.442524820568,4,,0,1130
1131S,,Medalla Milagrosa,,-34.636250121811,-58.450398445176,4,,0,1131
1132S,,Varela,,-34.639566964307,-58.457848280500,4,,0,1132
1133S,,Plaza de los Virreyes,,-34.642770031936,-58.461445122984,4,,0,1133
1156,,Larrazábal,,-34.680602280154,-58.465343409012,,,1,
1157,,Nicolas Descalzi,,-34.682798871351,-58.462343924707,,,1,
1158,,Gabino Ezeiza,,-34.685968042754,-58.458103459038,,,1,
1159,,General Savio,,-34.689597318341,-58.460816625841,,,1,
1160,,Córdoba,,-34.598686142195,-58.403805105041,,,1,
1161,,Santa Fe,,-34.594856588906,-58.402459654070,,,1,
1162,,Las Heras,,-34.588062575386,-58.39804479425,,,1,
1059,,San Pedrito,,-34.630922591443,-58.470433205504,,,1,
1060,,San José de Flores,,-34.629054501979,-58.463536343831,,,1,
1061,,Carabobo,,-34.626422392738,-58.456044495010,,,1,
1062,,Puán,,-34.623571847053,-58.448787778687,,,1,
1063,,Primera Junta,,-34.620460192436,-58.441400975016,,,1,
1064,,Acoyte,,-34.618036012360,-58.435862213379,,,1,
1065,,Río de Janeiro,,-34.615111439413,-58.429285879212,,,1,
1066,,Castro Barros,,-34.611763606902,-58.421728313005,,,1,
1067,,Loria,,-34.610811060554,-58.415152877453,,,1,
1068,,Plaza Miserere,,-34.609688,-58.406813889700,,,1,
1069,,Alberti,,-34.609832012885,-58.400719910883,,,1,
1070,,Pasco,,-34.609664444429,-58.398340314029,,,1,
1071,,Congreso,,-34.609241487037,-58.392670601487,,,1,
1072,,Sáenz Peña,,-34.609416989391,-58.386668153102,,,1,
1073,,Lima,,-34.609105721538,-58.382521122784,,,1,
1074,,Piedras,,-34.608837932068,-58.378502407734,,,1,
1075,,Perú,,-34.608559343180,-58.374563008418,,,1,
1076,,Plaza de Mayo,,-34.608695109514,-58.371493220293,,,1,
1077,,Juan Manuel de Rosas,,-34.574011003989,-58.486718237493,,,1,
1078,,Echeverría,,-34.577998380396,-58.480763733193,,,1,
1079,,De Los Incas - Parque Chas,,-34.581941400922,-58.472949117288,,,1,
1080,,Tronador - Villa Ortúzar,,-34.584319159038,-58.465676307586,,,1,
1081,,Federico Lacroze,,-34.587565207891,-58.454097211372,,,1,
1082,,Dorrego,,-34.591692697391,-58.447618335534,,,1,
1083,,Ángel Gallardo,,-34.602156515827,-58.431022167144,,,1,
1084,,Malabia,,-34.599048472974,-58.439674973441,,,1,
1085,,Medrano,,-34.603139517524,-58.421303182836,,,1,
1086,,Carlos Gardel,,-34.604103190729,-58.411704897892,,,1,
1087,,Pueyrredón,,-34.604613170616,-58.405234068657,,,1,
1088,,Pasteur,,-34.604623105662,-58.399357348627,,,1,
1089,,Callao,,-34.604457527748,-58.392845615810,,,1,
1090,,Uruguay,,-34.604046341872,-58.387106358997,,,1,
1091,,Carlos Pellegrini,,-34.603701386103,-58.381378501576,,,1,
1092,,Florida,,-34.603301786393,-58.374534845324,,,1,
1093,,Leandro N. Alem,,-34.602967313448,-58.369956314500,,,1,
1094,,Constitución,,-34.627276542920,-58.381431475198,,,1,
1095,,San Juan,,-34.622676270600,-58.379951566484,,,1,
1096,,Independencia,,-34.618060292427,-58.380236216020,,,1,
1097,,Moreno,,-34.612434686061,-58.380517847867,,,1,
1098,,Avenida de Mayo,,-34.608990925758,-58.380681462661,,,1,
1099,,Diagonal Norte,,-34.604795306773,-58.379235416539,,,1,
1114,,Facultad de Medicina,,-34.599719656814,-58.397433534301,,,1,
1115,,Callao,,-34.599602641978,-58.392240107111,,,1,
1116,,Tribunales,,-34.601770705188,-58.384459018730,,,1,
1117,,9 de Julio,,-34.604348245572,-58.380351886286,,,1,
1118,,Catedral,,-34.607624420959,-58.374257236745,,,1,
1119,,Bolívar,,-34.609575380822,-58.374049365518,,,1,
1120,,Belgrano,,-34.613410392420,-58.378220200429,,,1,
1121,,Independencia,,-34.618001797393,-58.380904421063,,,1,
1122,,San José,,-34.622367261066,-58.385392427497,,,1,
1123,,Entre Ríos,,-34.622759595691,-58.391514569428,,,1,
1124,,Pichincha,,-34.623133717895,-58.397111669159,,,1,
1125,,Jujuy,,-34.623878647026,-58.402829468279,,,1,
1126,,General Urquiza,,-34.624681784582,-58.409617468688,,,1,
1127,,Boedo,,-34.625545058485,-58.416628092456,,,1,
1128,,La Plata,,-34.626836228126,-58.425610810552,,,1,
1129,,José María Moreno,,-34.628084339372,-58.434297814982,,,1,
1130,,Emilio Mitre,,-34.631632139071,-58.442524820568,,,1,
1131,,Medalla Milagrosa,,-34.636250121811,-58.450398445176,,,1,
1132,,Varela,,-34.639566964307,-58.457848280500,,,1,
1133,,Plaza de los Virreyes,,-34.642770031936,-58.461445122984,,,1,
1134,,Hospitales,,-34.641752739715,-58.412673175271,,,1,
1135,,Parque Patricios,,-34.638460262593,-58.406328409852,,,1,
1136,,Caseros,,-34.635265854589,-58.399158865153,,,1,
1137,,Inclán,,-34.629351188776,-58.400986790654,,,1,
1138,,Humberto 1,,-34.623116366744,-58.402322201144,,,1,
1139,,Venezuela,,-34.615227118506,-58.404758647205,,,1,
1140,,Once,,-34.609147664305,-58.406046778011,,,1,
1141,,Corrientes,,-34.603923811372,-58.405317217086,,,1,
1142,,Intendente Saguier,,-34.643258552263,-58.461524902887,,,1,
1143,,Balbastro,,-34.649265520265,-58.455640019357,,,1,
1144,,Mariano Acosta,,-34.654438435230,-58.456492782087,,,1,
1145,,Somellera,,-34.656449351476,-58.453907455721,,,1,
1146,,Ana María Janer,,-34.659486340020,-58.450007979109,,,1,
1147,,Ntra. Sra. de Fátima,,-34.660447642203,-58.448783417607,,,1,
1148,,Fernández de la Cruz,,-34.662234999302,-58.446598243041,,,1,
1149,,Presidente Illia,,-34.665176579075,-58.448533126284,,,1,
1150,,Parque de la Ciudad,,-34.669865267294,-58.455109152349,,,1,
1151,,Cecilia Grierson,,-34.672189284049,-58.457543347854,,,1,
1152,,Escalada,,-34.674558787808,-58.460167171717,,,1,
1153,,Pola,,-34.678110629633,-58.464412206378,,,1,
1154,,Ana Díaz,,-34.680577977821,-58.466877924815,,,1,
1155,,Centro Cívico,,-34.683539244591,-58.465152180426,,,1,
1100,,Lavalle,,-34.601776224270,-58.378115594396,,,1,
1101,,General San Martín,,-34.594872221186,-58.377256616835,,,1,
1102,,Retiro,,-34.591873756182,-58.374748081035,,,1,
1103,,Congreso de Tucumán,,-34.555987572378,-58.462078124285,,,1,
1104,,Juramento,,-34.562410402122,-58.456280529496,,,1,
1105,,José Hernández,,-34.566267592324,-58.451968878529,,,1,
1106,,Olleros,,-34.570246506058,-58.444336652709,,,1,
1107,,Ministro Carranza,,-34.575205802166,-58.434726297831,,,1,
1108,,Palermo,,-34.578413560940,-58.425869643601,,,1,
1109,,Plaza Italia,,-34.581660946057,-58.420978635617,,,1,
1110,,Scalabrini Ortiz,,-34.585185336263,-58.415824770871,,,1,
1111,,Bulnes,,-34.588258565847,-58.411264344992,,,1,
1112,,Agüero,,-34.591698218136,-58.407092839478,,,1,
1113,,Pueyrredón,,-34.594988137797,-58.403226435199,,,1,
